[
  {
    "name": "Akureyri International Airport",
    "city": "Akureyri",
    "country": "IS",
    "iata": "AEY",
    "icao": "BIAR",
    "lat": 65.656573,
    "lon": -18.072018,
    "type": "large",
    "scheduled": true
  },
  {
    "name": "Egilsstaðir Airport",
    "city": "Egilsstaðir",
    "country": "IS",
    "iata": "EGS",
    "icao": "BIEG",
    "lat": 65.2833023071289,
    "lon": -14.401399612426758,
    "type": "medium",
    "scheduled": true
  },
  {
    "name": "Grímsey Airport",
    "city": "Grímsey/Sandvík",
    "country": "IS",
    "iata": "GRY",
    "icao": "BIGR",
    "lat": 66.5458,
    "lon": -18.0173,
    "type": "medium",
    "scheduled": true
  },
  {
    "name": "Hornafjörður Airport",
    "city": "Höfn",
    "country": "IS",
    "iata": "HFN",
    "icao": "BIHN",
    "lat": 64.295601,
    "lon": -15.2272,
    "type": "medium",
    "scheduled": true
  },
  {
    "name": "Húsavík Airport",
    "city": "Húsavík",
    "country": "IS",
    "iata": "HZK",
    "icao": "BIHU",
    "lat": 65.952301,
    "lon": -17.426001,
    "type": "medium",
    "scheduled": true
  },
  {
    "name": "Ísafjörður Airport",
    "city": "Ísafjörður",
    "country": "IS",
    "iata": "IFJ",
    "icao": "BIIS",
    "lat": 66.058098,
    "lon": -23.1353,
    "type": "medium",
    "scheduled": true
  },
  {
    "name": "Keflavik International Airport",
    "city": "Reykjavík",
    "country": "IS",
    "iata": "KEF",
    "icao": "BIKF",
    "lat": 63.985001,
    "lon": -22.6056,
    "type": "large",
    "scheduled": true
  },
  {
    "name": "Reykjavík Domestic Airport",
    "city": "Reykjavík",
    "country": "IS",
    "iata": "RKV",
    "icao": "BIRK",
    "lat": 64.128732,
    "lon": -21.93759,
    "type": "medium",
    "scheduled": true
  },
  {
    "name": "Priština Adem Jashari International Airport",
    "city": "Prishtina",
    "country": "XK",
    "iata": "PRN",
    "icao": "BKPR",
    "lat": 42.5728,
    "lon": 21.035801,
    "type": "large",
    "scheduled": true
  },
  {
    "name": "Antwerp International Airport (Deurne)",
    "city": "Antwerp",
    "country": "BE",
    "iata": "ANR",
    "icao": "EBAW",
    "lat": 51.190667,
    "lon": 4.463153,
    "type": "medium",
    "scheduled": true
  },
  {
    "name": "Brussels Airport",
    "city": "Zaventem",
    "country": "BE",
    "iata": "BRU",
    "icao": "EBBR",
    "lat": 50.901402,
    "lon": 4.48444,
    "type": "large",
    "scheduled": true
  },
  {
    "name": "Brussels South Charleroi Airport",
    "city": "Charleroi",
    "country": "BE",
    "iata": "CRL",
    "icao": "EBCI",
    "lat": 50.461963,
    "lon": 4.459562,
    "type": "large",
    "scheduled": true
  },
  {
    "name": "Liège Airport",
    "city": "Grâce-Hollogne",
    "country": "BE",
    "iata": "LGG",
    "icao": "EBLG",
    "lat": 50.638574,
    "lon": 5.443897,
    "type": "medium",
    "scheduled": true
  },
  {
    "name": "Ostend-Bruges International Airport",
    "city": "Oostende",
    "country": "BE",
    "iata": "OST",
    "icao": "EBOS",
    "lat": 51.1998,
    "lon": 2.874673,
    "type": "large",
    "scheduled": true
  },
  {
    "name": "Heringsdorf Airport",
    "city": "Zirchow",
    "country": "DE",
    "iata": "HDF",
    "icao": "EDAH",
    "lat": 53.8787,
    "lon": 14.1523,
    "type": "medium",
    "scheduled": true
  },
  {
    "name": "Berlin Brandenburg Willy Brandt Airport",
    "city": "Berlin",
    "country": "DE",
    "iata": "BER",
    "icao": "EDDB",
    "lat": 52.361738,
    "lon": 13.502341,
    "type": "large",
    "scheduled": true
  },
  {
    "name": "Dresden Airport",
    "city": "Dresden",
    "country": "DE",
    "iata": "DRS",
    "icao": "EDDC",
    "lat": 51.134123,
    "lon": 13.767831,
    "type": "large",
    "scheduled": true
  },
  {
    "name": "Erfurt-Weimar Airport",
    "city": "Erfurt",
    "country": "DE",
    "iata": "ERF",
    "icao": "EDDE",
    "lat": 50.978281,
    "lon": 10.960713,
    "type": "large",
    "scheduled": true
  },
  {
    "name": "Frankfurt Airport",
    "city": "Frankfurt am Main",
    "country": "DE",
    "iata": "FRA",
    "icao": "EDDF",
    "lat": 50.030241,
    "lon": 8.561096,
    "type": "large",
    "scheduled": true
  },
  {
    "name": "Münster Osnabrück Airport",
    "city": "Greven",
    "country": "DE",
    "iata": "FMO",
    "icao": "EDDG",
    "lat": 52.133816,
    "lon": 7.688482,
    "type": "large",
    "scheduled": true
  },
  {
    "name": "Hamburg Helmut Schmidt Airport",
    "city": "Hamburg",
    "country": "DE",
    "iata": "HAM",
    "icao": "EDDH",
    "lat": 53.630402,
    "lon": 9.98823,
    "type": "large",
    "scheduled": true
  },
  {
    "name": "Cologne Bonn Airport",
    "city": "Köln (Cologne)",
    "country": "DE",
    "iata": "CGN",
    "icao": "EDDK",
    "lat": 50.865898,
    "lon": 7.14274,
    "type": "large",
    "scheduled": true
  },
  {
    "name": "Düsseldorf Airport",
    "city": "Düsseldorf",
    "country": "DE",
    "iata": "DUS",
    "icao": "EDDL",
    "lat": 51.289501,
    "lon": 6.76678,
    "type": "large",
    "scheduled": true
  },
  {
    "name": "Munich Airport",
    "city": "Munich",
    "country": "DE",
    "iata": "MUC",
    "icao": "EDDM",
    "lat": 48.353802,
    "lon": 11.7861,
    "type": "large",
    "scheduled": true
  },
  {
    "name": "Nuremberg Airport",
    "city": "Nuremberg",
    "country": "DE",
    "iata": "NUE",
    "icao": "EDDN",
    "lat": 49.498699,
    "lon": 11.078056,
    "type": "large",
    "scheduled": true
  },
  {
    "name": "Leipzig/Halle Airport",
    "city": "Schkeuditz",
    "country": "DE",
    "iata": "LEJ",
    "icao": "EDDP",
    "lat": 51.420657,
    "lon": 12.232705,
    "type": "large",
    "scheduled": true
  },
  {
    "name": "Saarbrücken Airport",
    "city": "Saarbrücken",
    "country": "DE",
    "iata": "SCN",
    "icao": "EDDR",
    "lat": 49.217562,
    "lon": 7.111667,
    "type": "large",
    "scheduled": true
  },
  {
    "name": "Stuttgart Airport",
    "city": "Stuttgart",
    "country": "DE",
    "iata": "STR",
    "icao": "EDDS",
    "lat": 48.689899,
    "lon": 9.22196,
    "type": "large",
    "scheduled": true
  },
  {
    "name": "Hannover Airport",
    "city": "Hannover",
    "country": "DE",
    "iata": "HAJ",
    "icao": "EDDV",
    "lat": 52.461102,
    "lon": 9.68508,
    "type": "large",
    "scheduled": true
  },
  {
    "name": "Bremen Airport",
    "city": "Bremen",
    "country": "DE",
    "iata": "BRE",
    "icao": "EDDW",
    "lat": 53.046786,
    "lon": 8.78932,
    "type": "large",
    "scheduled": true
  },
  {
    "name": "Frankfurt-Hahn Airport",
    "city": "Frankfurt am Main (Lautzenhausen)",
    "country": "DE",
    "iata": "HHN",
    "icao": "EDFH",
    "lat": 49.946353,
    "lon": 7.261734,
    "type": "large",
    "scheduled": true
  },
  {
    "name": "Mannheim-City Airport",
    "city": "Mannheim",
    "country": "DE",
    "iata": "MHG",
    "icao": "EDFM",
    "lat": 49.473057,
    "lon": 8.514167,
    "type": "medium",
    "scheduled": true
  },
  {
    "name": "Lübeck Blankensee Airport",
    "city": "Lübeck",
    "country": "DE",
    "iata": "LBC",
    "icao": "EDHL",
    "lat": 53.805401,
    "lon": 10.7192,
    "type": "medium",
    "scheduled": true
  },
  {
    "name": "Memmingen Allgau Airport",
    "city": "Memmingen",
    "country": "DE",
    "iata": "FMM",
    "icao": "EDJA",
    "lat": 47.988092,
    "lon": 10.238248,
    "type": "large",
    "scheduled": true
  },
  {
    "name": "Paderborn Lippstadt Airport",
    "city": "Büren",
    "country": "DE",
    "iata": "PAD",
    "icao": "EDLP",
    "lat": 51.612527,
    "lon": 8.617459,
    "type": "large",
    "scheduled": true
  },
  {
    "name": "Weeze (Niederrhein) Airport",
    "city": "Weeze",
    "country": "DE",
    "iata": "NRN",
    "icao": "EDLV",
    "lat": 51.601362,
    "lon": 6.141228,
    "type": "large",
    "scheduled": true
  },
  {
    "name": "Dortmund Airport",
    "city": "Dortmund",
    "country": "DE",
    "iata": "DTM",
    "icao": "EDLW",
    "lat": 51.518299,
    "lon": 7.61224,
    "type": "large",
    "scheduled": true
  },
  {
    "name": "Bodensee Airport Friedrichshafen",
    "city": "Friedrichshafen",
    "country": "DE",
    "iata": "FDH",
    "icao": "EDNY",
    "lat": 47.671299,
    "lon": 9.51149,
    "type": "large",
    "scheduled": true
  },
  {
    "name": "Karlsruhe Baden-Baden Airport",
    "city": "Rheinmünster",
    "country": "DE",
    "iata": "FKB",
    "icao": "EDSB",
    "lat": 48.7794,
    "lon": 8.0805,
    "type": "large",
    "scheduled": true
  },
  {
    "name": "Kassel Airport",
    "city": "Calden",
    "country": "DE",
    "iata": "KSF",
    "icao": "EDVK",
    "lat": 51.418395,
    "lon": 9.391638,
    "type": "large",
    "scheduled": true
  },
  {
    "name": "Westerland Sylt Airport",
    "city": "Sylt",
    "country": "DE",
    "iata": "GWT",
    "icao": "EDXW",
    "lat": 54.9132,
    "lon": 8.34047,
    "type": "medium",
    "scheduled": true
  },
  {
    "name": "Kärdla Airport",
    "city": "Kärdla",
    "country": "EE",
    "iata": "KDL",
    "icao": "EEKA",
    "lat": 58.99079895019531,
    "lon": 22.830699920654297,
    "type": "medium",
    "scheduled": true
  },
  {
    "name": "Kuressaare Airport",
    "city": "Kuressaare",
    "country": "EE",
    "iata": "URE",
    "icao": "EEKE",
    "lat": 58.22990036010742,
    "lon": 22.50950050354004,
    "type": "medium",
    "scheduled": true
  },
  {
    "name": "Pärnu Airport",
    "city": "Pärnu",
    "country": "EE",
    "iata": "EPU",
    "icao": "EEPU",
    "lat": 58.41899871826172,
    "lon": 24.47279930114746,
    "type": "medium",
    "scheduled": true
  },
  {
    "name": "Lennart Meri Tallinn Airport",
    "city": "Tallinn",
    "country": "EE",
    "iata": "TLL",
    "icao": "EETN",
    "lat": 59.413246,
    "lon": 24.83264,
    "type": "large",
    "scheduled": true
  },
  {
    "name": "Tartu Airport",
    "city": "Reola",
    "country": "EE",
    "iata": "TAY",
    "icao": "EETU",
    "lat": 58.307438,
    "lon": 26.686473,
    "type": "medium",
    "scheduled": true
  },
  {
    "name": "Enontekio Airport",
    "city": "Enontekio",
    "country": "FI",
    "iata": "ENF",
    "icao": "EFET",
    "lat": 68.362602233887,
    "lon": 23.424299240112,
    "type": "medium",
    "scheduled": true
  },
  {
    "name": "Helsinki Vantaa Airport",
    "city": "Helsinki (Vantaa)",
    "country": "FI",
    "iata": "HEL",
    "icao": "EFHK",
    "lat": 60.318363,
    "lon": 24.963341,
    "type": "large",
    "scheduled": true
  },
  {
    "name": "Ivalo Airport",
    "city": "Ivalo",
    "country": "FI",
    "iata": "IVL",
    "icao": "EFIV",
    "lat": 68.6073,
    "lon": 27.4053,
    "type": "large",
    "scheduled": true
  },
  {
    "name": "Joensuu Airport",
    "city": "Joensuu",
    "country": "FI",
    "iata": "JOE",
    "icao": "EFJO",
    "lat": 62.658815,
    "lon": 29.619398,
    "type": "medium",
    "scheduled": true
  },
  {
    "name": "Jyväskylä Airport",
    "city": "Jyväskylän Maalaiskunta",
    "country": "FI",
    "iata": "JYV",
    "icao": "EFJY",
    "lat": 62.399502,
    "lon": 25.678301,
    "type": "medium",
    "scheduled": true
  },
  {
    "name": "Kemi-Tornio Airport",
    "city": "Kemi / Tornio",
    "country": "FI",
    "iata": "KEM",
    "icao": "EFKE",
    "lat": 65.778701782227,
    "lon": 24.582099914551,
    "type": "medium",
    "scheduled": true
  },
  {
    "name": "Kajaani Airport",
    "city": "Kajaani",
    "country": "FI",
    "iata": "KAJ",
    "icao": "EFKI",
    "lat": 64.2855,
    "lon": 27.6924,
    "type": "medium",
    "scheduled": true
  },
  {
    "name": "Kokkola-Pietarsaari Airport",
    "city": "Kokkola / Kruunupyy",
    "country": "FI",
    "iata": "KOK",
    "icao": "EFKK",
    "lat": 63.721199,
    "lon": 23.143101,
    "type": "medium",
    "scheduled": true
  },
  {
    "name": "Kuusamo Airport",
    "city": "Kuusamo",
    "country": "FI",
    "iata": "KAO",
    "icao": "EFKS",
    "lat": 65.987602,
    "lon": 29.239401,
    "type": "medium",
    "scheduled": true
  },
  {
    "name": "Kittilä International Airport",
    "city": "Kittilä",
    "country": "FI",
    "iata": "KTT",
    "icao": "EFKT",
    "lat": 67.700996,
    "lon": 24.8468,
    "type": "large",
    "scheduled": true
  },
  {
    "name": "Kuopio Airport",
    "city": "Kuopio / Siilinjärvi",
    "country": "FI",
    "iata": "KUO",
    "icao": "EFKU",
    "lat": 63.007099,
    "lon": 27.7978,
    "type": "large",
    "scheduled": true
  },
  {
    "name": "Lappeenranta Airport",
    "city": "Lappeenranta",
    "country": "FI",
    "iata": "LPP",
    "icao": "EFLP",
    "lat": 61.044601,
    "lon": 28.144743,
    "type": "large",
    "scheduled": true
  },
  {
    "name": "Mariehamn Airport",
    "city": "Mariehamn",
    "country": "FI",
    "iata": "MHQ",
    "icao": "EFMA",
    "lat": 60.1222,
    "lon": 19.898199,
    "type": "medium",
    "scheduled": true
  },
  {
    "name": "Oulu Airport",
    "city": "Oulu / Oulunsalo",
    "country": "FI",
    "iata": "OUL",
    "icao": "EFOU",
    "lat": 64.930099,
    "lon": 25.354601,
    "type": "large",
    "scheduled": true
  },
  {
    "name": "Pori Airport",
    "city": "Pori",
    "country": "FI",
    "iata": "POR",
    "icao": "EFPO",
    "lat": 61.4617,
    "lon": 21.799999,
    "type": "medium",
    "scheduled": true
  },
  {
    "name": "Rovaniemi Airport",
    "city": "Rovaniemi",
    "country": "FI",
    "iata": "RVN",
    "icao": "EFRO",
    "lat": 66.563327,
    "lon": 25.829751,
    "type": "large",
    "scheduled": true
  },
  {
    "name": "Savonlinna Airport",
    "city": "Savonlinna",
    "country": "FI",
    "iata": "SVL",
    "icao": "EFSA",
    "lat": 61.9431,
    "lon": 28.945101,
    "type": "medium",
    "scheduled": true
  },
  {
    "name": "Tampere-Pirkkala Airport",
    "city": "Tampere / Pirkkala",
    "country": "FI",
    "iata": "TMP",
    "icao": "EFTP",
    "lat": 61.414101,
    "lon": 23.604401,
    "type": "large",
    "scheduled": true
  },
  {
    "name": "Turku Airport",
    "city": "Turku",
    "country": "FI",
    "iata": "TKU",
    "icao": "EFTU",
    "lat": 60.514099,
    "lon": 22.2628,
    "type": "large",
    "scheduled": true
  },
  {
    "name": "Vaasa Airport",
    "city": "Vaasa",
    "country": "FI",
    "iata": "VAA",
    "icao": "EFVA",
    "lat": 63.05023,
    "lon": 21.762543,
    "type": "large",
    "scheduled": true
  },
  {
    "name": "Belfast International Airport",
    "city": "Belfast",
    "country": "GB",
    "iata": "BFS",
    "icao": "EGAA",
    "lat": 54.6575012207,
    "lon": -6.2158298492399995,
    "type": "large",
    "scheduled": true
  },
  {
    "name": "George Best Belfast City Airport",
    "city": "Belfast",
    "country": "GB",
    "iata": "BHD",
    "icao": "EGAC",
    "lat": 54.618099,
    "lon": -5.8725,
    "type": "medium",
    "scheduled": true
  },
  {
    "name": "City of Derry Airport",
    "city": "Derry, Derry and Strabane",
    "country": "GB",
    "iata": "LDY",
    "icao": "EGAE",
    "lat": 55.042801,
    "lon": -7.16111,
    "type": "medium",
    "scheduled": true
  },
  {
    "name": "Birmingham Airport",
    "city": "Birmingham, West Midlands",
    "country": "GB",
    "iata": "BHX",
    "icao": "EGBB",
    "lat": 52.453899,
    "lon": -1.74803,
    "type": "large",
    "scheduled": true
  },
  {
    "name": "Manchester Airport",
    "city": "Manchester, Greater Manchester",
    "country": "GB",
    "iata": "MAN",
    "icao": "EGCC",
    "lat": 53.349375,
    "lon": -2.279521,
    "type": "large",
    "scheduled": true
  },
  {
    "name": "Campbeltown Airport",
    "city": "Campbeltown",
    "country": "GB",
    "iata": "CAL",
    "icao": "EGEC",
    "lat": 55.437199,
    "lon": -5.68639,
    "type": "medium",
    "scheduled": true
  },
  {
    "name": "Eday Airport",
    "city": "Eday",
    "country": "GB",
    "iata": "EOI",
    "icao": "EGED",
    "lat": 59.19060134887695,
    "lon": -2.7722198963165283,
    "type": "medium",
    "scheduled": true
  },
  {
    "name": "Cardiff International Airport",
    "city": "Cardiff",
    "country": "GB",
    "iata": "CWL",
    "icao": "EGFF",
    "lat": 51.396702,
    "lon": -3.34333,
    "type": "large",
    "scheduled": true
  },
  {
    "name": "Bristol Airport",
    "city": "Bristol",
    "country": "GB",
    "iata": "BRS",
    "icao": "EGGD",
    "lat": 51.382326,
    "lon": -2.716453,
    "type": "large",
    "scheduled": true
  },
  {
    "name": "Liverpool John Lennon Airport",
    "city": "Liverpool",
    "country": "GB",
    "iata": "LPL",
    "icao": "EGGP",
    "lat": 53.334863,
    "lon": -2.849637,
    "type": "large",
    "scheduled": true
  },
  {
    "name": "London Luton Airport",
    "city": "Luton, Bedfordshire",
    "country": "GB",
    "iata": "LTN",
    "icao": "EGGW",
    "lat": 51.874699,
    "lon": -0.368333,
    "type": "large",
    "scheduled": true
  },
  {
    "name": "Bournemouth Airport",
    "city": "Bournemouth",
    "country": "GB",
    "iata": "BOH",
    "icao": "EGHH",
    "lat": 50.780483,
    "lon": -1.839576,
    "type": "medium",
    "scheduled": true
  },
  {
    "name": "Southampton Airport",
    "city": "Southampton",
    "country": "GB",
    "iata": "SOU",
    "icao": "EGHI",
    "lat": 50.950298,
    "lon": -1.3568,
    "type": "medium",
    "scheduled": true
  },
  {
    "name": "Cornwall Airport Newquay",
    "city": "Newquay",
    "country": "GB",
    "iata": "NQY",
    "icao": "EGHQ",
    "lat": 50.440601,
    "lon": -4.99541,
    "type": "medium",
    "scheduled": true
  },
  {
    "name": "Alderney Airport",
    "city": "Saint Anne",
    "country": "GG",
    "iata": "ACI",
    "icao": "EGJA",
    "lat": 49.706104,
    "lon": -2.21472,
    "type": "medium",
    "scheduled": true
  },
  {
    "name": "Guernsey Airport",
    "city": "Saint Peter Port",
    "country": "GG",
    "iata": "GCI",
    "icao": "EGJB",
    "lat": 49.435001,
    "lon": -2.60197,
    "type": "medium",
    "scheduled": true
  },
  {
    "name": "Jersey Airport",
    "city": "St. Peter",
    "country": "JE",
    "iata": "JER",
    "icao": "EGJJ",
    "lat": 49.207901,
    "lon": -2.19551,
    "type": "medium",
    "scheduled": true
  },
  {
    "name": "London Gatwick Airport",
    "city": "London",
    "country": "GB",
    "iata": "LGW",
    "icao": "EGKK",
    "lat": 51.148771,
    "lon": -0.192089,
    "type": "large",
    "scheduled": true
  },
  {
    "name": "London City Airport",
    "city": "London",
    "country": "GB",
    "iata": "LCY",
    "icao": "EGLC",
    "lat": 51.505299,
    "lon": 0.055278,
    "type": "medium",
    "scheduled": true
  },
  {
    "name": "London Heathrow Airport",
    "city": "London",
    "country": "GB",
    "iata": "LHR",
    "icao": "EGLL",
    "lat": 51.4706,
    "lon": -0.461941,
    "type": "large",
    "scheduled": true
  },
  {
    "name": "London Southend Airport",
    "city": "Southend-on-Sea, Essex",
    "country": "GB",
    "iata": "SEN",
    "icao": "EGMC",
    "lat": 51.570562,
    "lon": 0.693627,
    "type": "medium",
    "scheduled": true
  },
  {
    "name": "Humberside Airport",
    "city": "Grimsby, Lincolnshire",
    "country": "GB",
    "iata": "HUY",
    "icao": "EGNJ",
    "lat": 53.576152,
    "lon": -0.34954,
    "type": "medium",
    "scheduled": true
  },
  {
    "name": "Leeds Bradford Airport",
    "city": "Leeds, West Yorkshire",
    "country": "GB",
    "iata": "LBA",
    "icao": "EGNM",
    "lat": 53.865898,
    "lon": -1.66057,
    "type": "large",
    "scheduled": true
  },
  {
    "name": "Isle of Man Airport",
    "city": "Castletown",
    "country": "IM",
    "iata": "IOM",
    "icao": "EGNS",
    "lat": 54.083081,
    "lon": -4.623871,
    "type": "large",
    "scheduled": true
  },
  {
    "name": "Newcastle International Airport",
    "city": "Newcastle upon Tyne, Tyne and Wear",
    "country": "GB",
    "iata": "NCL",
    "icao": "EGNT",
    "lat": 55.037958,
    "lon": -1.689577,
    "type": "large",
    "scheduled": true
  },
  {
    "name": "Teesside International Airport",
    "city": "Darlington, Durham",
    "country": "GB",
    "iata": "MME",
    "icao": "EGNV",
    "lat": 54.509201,
    "lon": -1.42941,
    "type": "medium",
    "scheduled": true
  },
  {
    "name": "East Midlands Airport",
    "city": "Nottingham",
    "country": "GB",
    "iata": "EMA",
    "icao": "EGNX",
    "lat": 52.8311,
    "lon": -1.32806,
    "type": "large",
    "scheduled": true
  },
  {
    "name": "Kirkwall Airport",
    "city": "Kirkwall, Orkney Islands",
    "country": "GB",
    "iata": "KOI",
    "icao": "EGPA",
    "lat": 58.957903,
    "lon": -2.905077,
    "type": "medium",
    "scheduled": true
  },
  {
    "name": "Sumburgh Airport",
    "city": "Lerwick, Shetland",
    "country": "GB",
    "iata": "LSI",
    "icao": "EGPB",
    "lat": 59.878899,
    "lon": -1.29556,
    "type": "medium",
    "scheduled": true
  },
  {
    "name": "Wick John O'Groats Airport",
    "city": "Wick",
    "country": "GB",
    "iata": "WIC",
    "icao": "EGPC",
    "lat": 58.4589,
    "lon": -3.09306,
    "type": "medium",
    "scheduled": true
  },
  {
    "name": "Aberdeen International Airport",
    "city": "Aberdeen",
    "country": "GB",
    "iata": "ABZ",
    "icao": "EGPD",
    "lat": 57.2019,
    "lon": -2.19778,
    "type": "medium",
    "scheduled": true
  },
  {
    "name": "Inverness Airport",
    "city": "Inverness",
    "country": "GB",
    "iata": "INV",
    "icao": "EGPE",
    "lat": 57.5425,
    "lon": -4.0475,
    "type": "medium",
    "scheduled": true
  },
  {
    "name": "Glasgow Airport",
    "city": "Glasgow",
    "country": "GB",
    "iata": "GLA",
    "icao": "EGPF",
    "lat": 55.871899,
    "lon": -4.43306,
    "type": "large",
    "scheduled": true
  },
  {
    "name": "Edinburgh Airport",
    "city": "Edinburgh",
    "country": "GB",
    "iata": "EDI",
    "icao": "EGPH",
    "lat": 55.950145,
    "lon": -3.372288,
    "type": "large",
    "scheduled": true
  },
  {
    "name": "Islay Airport",
    "city": "Isle of Islay, Argyll and Bute",
    "country": "GB",
    "iata": "ILY",
    "icao": "EGPI",
    "lat": 55.682708,
    "lon": -6.257525,
    "type": "medium",
    "scheduled": true
  },
  {
    "name": "Glasgow Prestwick Airport",
    "city": "Prestwick, South Ayrshire",
    "country": "GB",
    "iata": "PIK",
    "icao": "EGPK",
    "lat": 55.502003,
    "lon": -4.587019,
    "type": "medium",
    "scheduled": true
  },
  {
    "name": "Benbecula Airport",
    "city": "Balivanich",
    "country": "GB",
    "iata": "BEB",
    "icao": "EGPL",
    "lat": 57.481098,
    "lon": -7.36278,
    "type": "medium",
    "scheduled": true
  },
  {
    "name": "Dundee Airport",
    "city": "Dundee",
    "country": "GB",
    "iata": "DND",
    "icao": "EGPN",
    "lat": 56.452499,
    "lon": -3.02583,
    "type": "medium",
    "scheduled": true
  },
  {
    "name": "Stornoway Airport",
    "city": "Stornoway, Western Isles",
    "country": "GB",
    "iata": "SYY",
    "icao": "EGPO",
    "lat": 58.215599,
    "lon": -6.33111,
    "type": "medium",
    "scheduled": true
  },
  {
    "name": "Barra Airport",
    "city": "Eoligarry",
    "country": "GB",
    "iata": "BRR",
    "icao": "EGPR",
    "lat": 57.0228,
    "lon": -7.44306,
    "type": "medium",
    "scheduled": true
  },
  {
    "name": "Tiree Airport",
    "city": "Balemartine, Argyll and Bute",
    "country": "GB",
    "iata": "TRE",
    "icao": "EGPU",
    "lat": 56.499199,
    "lon": -6.86917,
    "type": "medium",
    "scheduled": true
  },
  {
    "name": "Norwich Airport",
    "city": "Norwich, Norfolk",
    "country": "GB",
    "iata": "NWI",
    "icao": "EGSH",
    "lat": 52.6758,
    "lon": 1.28278,
    "type": "medium",
    "scheduled": true
  },
  {
    "name": "London Stansted Airport",
    "city": "London, Essex",
    "country": "GB",
    "iata": "STN",
    "icao": "EGSS",
    "lat": 51.884998,
    "lon": 0.235,
    "type": "large",
    "scheduled": true
  },
  {
    "name": "Exeter International Airport",
    "city": "Exeter, Devon",
    "country": "GB",
    "iata": "EXT",
    "icao": "EGTE",
    "lat": 50.734261,
    "lon": -3.413984,
    "type": "medium",
    "scheduled": true
  },
  {
    "name": "Amsterdam Airport Schiphol",
    "city": "Amsterdam",
    "country": "NL",
    "iata": "AMS",
    "icao": "EHAM",
    "lat": 52.308601,
    "lon": 4.76389,
    "type": "large",
    "scheduled": true
  },
  {
    "name": "Maastricht Aachen Airport",
    "city": "Maastricht",
    "country": "NL",
    "iata": "MST",
    "icao": "EHBK",
    "lat": 50.911701,
    "lon": 5.77014,
    "type": "medium",
    "scheduled": true
  },
  {
    "name": "Eindhoven Airport",
    "city": "Eindhoven",
    "country": "NL",
    "iata": "EIN",
    "icao": "EHEH",
    "lat": 51.4500999451,
    "lon": 5.37452983856,
    "type": "large",
    "scheduled": true
  },
  {
    "name": "Groningen Airport Eelde",
    "city": "Groningen",
    "country": "NL",
    "iata": "GRQ",
    "icao": "EHGG",
    "lat": 53.119701,
    "lon": 6.57944,
    "type": "medium",
    "scheduled": true
  },
  {
    "name": "Rotterdam The Hague Airport",
    "city": "Rotterdam",
    "country": "NL",
    "iata": "RTM",
    "icao": "EHRD",
    "lat": 51.956902,
    "lon": 4.43722,
    "type": "large",
    "scheduled": true
  },
  {
    "name": "Cork International Airport",
    "city": "Cork",
    "country": "IE",
    "iata": "ORK",
    "icao": "EICK",
    "lat": 51.841301,
    "lon": -8.49111,
    "type": "large",
    "scheduled": true
  },
  {
    "name": "Donegal Airport",
    "city": "Donegal",
    "country": "IE",
    "iata": "CFN",
    "icao": "EIDL",
    "lat": 55.0442008972168,
    "lon": -8.340999603271484,
    "type": "medium",
    "scheduled": true
  },
  {
    "name": "Dublin Airport",
    "city": "Dublin",
    "country": "IE",
    "iata": "DUB",
    "icao": "EIDW",
    "lat": 53.428713,
    "lon": -6.262121,
    "type": "large",
    "scheduled": true
  },
  {
    "name": "Ireland West Airport Knock",
    "city": "Charlestown",
    "country": "IE",
    "iata": "NOC",
    "icao": "EIKN",
    "lat": 53.910439,
    "lon": -8.817002,
    "type": "large",
    "scheduled": true
  },
  {
    "name": "Kerry Airport",
    "city": "Farranfore",
    "country": "IE",
    "iata": "KIR",
    "icao": "EIKY",
    "lat": 52.180901,
    "lon": -9.52378,
    "type": "medium",
    "scheduled": true
  },
  {
    "name": "Shannon Airport",
    "city": "Shannon",
    "country": "IE",
    "iata": "SNN",
    "icao": "EINN",
    "lat": 52.702,
    "lon": -8.92482,
    "type": "large",
    "scheduled": true
  },
  {
    "name": "Aarhus Airport",
    "city": "Aarhus",
    "country": "DK",
    "iata": "AAR",
    "icao": "EKAH",
    "lat": 56.303331,
    "lon": 10.618286,
    "type": "medium",
    "scheduled": true
  },
  {
    "name": "Billund Airport",
    "city": "Billund",
    "country": "DK",
    "iata": "BLL",
    "icao": "EKBI",
    "lat": 55.740335,
    "lon": 9.157019,
    "type": "large",
    "scheduled": true
  },
  {
    "name": "Copenhagen Kastrup Airport",
    "city": "Copenhagen",
    "country": "DK",
    "iata": "CPH",
    "icao": "EKCH",
    "lat": 55.617900848389,
    "lon": 12.656000137329,
    "type": "large",
    "scheduled": true
  },
  {
    "name": "Esbjerg Airport",
    "city": "Esbjerg",
    "country": "DK",
    "iata": "EBJ",
    "icao": "EKEB",
    "lat": 55.525902,
    "lon": 8.5534,
    "type": "medium",
    "scheduled": true
  },
  {
    "name": "Midtjyllands Airport / Air Base Karup",
    "city": "Karup",
    "country": "DK",
    "iata": "KRP",
    "icao": "EKKA",
    "lat": 56.297139,
    "lon": 9.104311,
    "type": "medium",
    "scheduled": true
  },
  {
    "name": "Odense Hans Christian Andersen Airport",
    "city": "Odense",
    "country": "DK",
    "iata": "ODE",
    "icao": "EKOD",
    "lat": 55.475307,
    "lon": 10.327206,
    "type": "large",
    "scheduled": true
  },
  {
    "name": "Copenhagen Roskilde Airport",
    "city": "Roskilde",
    "country": "DK",
    "iata": "RKE",
    "icao": "EKRK",
    "lat": 55.585602,
    "lon": 12.1314,
    "type": "medium",
    "scheduled": true
  },
  {
    "name": "Bornholm Airport",
    "city": "Rønne",
    "country": "DK",
    "iata": "RNN",
    "icao": "EKRN",
    "lat": 55.063301,
    "lon": 14.7596,
    "type": "medium",
    "scheduled": true
  },
  {
    "name": "Sønderborg Airport",
    "city": "Sønderborg",
    "country": "DK",
    "iata": "SGD",
    "icao": "EKSB",
    "lat": 54.96440124511719,
    "lon": 9.791729927062988,
    "type": "medium",
    "scheduled": true
  },
  {
    "name": "Vágar Airport",
    "city": "Vágar",
    "country": "FO",
    "iata": "FAE",
    "icao": "EKVG",
    "lat": 62.063256,
    "lon": -7.275782,
    "type": "large",
    "scheduled": true
  },
  {
    "name": "Aalborg Airport",
    "city": "Aalborg",
    "country": "DK",
    "iata": "AAL",
    "icao": "EKYT",
    "lat": 57.094763,
    "lon": 9.84993,
    "type": "medium",
    "scheduled": true
  },
  {
    "name": "Luxembourg-Findel International Airport",
    "city": "Luxembourg",
    "country": "LU",
    "iata": "LUX",
    "icao": "ELLX",
    "lat": 49.6233333,
    "lon": 6.2044444,
    "type": "large",
    "scheduled": true
  },
  {
    "name": "Ålesund Airport, Vigra",
    "city": "Ålesund",
    "country": "NO",
    "iata": "AES",
    "icao": "ENAL",
    "lat": 62.5625,
    "lon": 6.1197,
    "type": "medium",
    "scheduled": true
  },
  {
    "name": "Andøya Airport, Andenes",
    "city": "Andenes",
    "country": "NO",
    "iata": "ANX",
    "icao": "ENAN",
    "lat": 69.292503,
    "lon": 16.144199,
    "type": "medium",
    "scheduled": true
  },
  {
    "name": "Alta Airport",
    "city": "Alta",
    "country": "NO",
    "iata": "ALF",
    "icao": "ENAT",
    "lat": 69.976097,
    "lon": 23.3717,
    "type": "medium",
    "scheduled": true
  },
  {
    "name": "Brønnøysund Airport, Brønnøy",
    "city": "Brønnøy",
    "country": "NO",
    "iata": "BNN",
    "icao": "ENBN",
    "lat": 65.461098,
    "lon": 12.2175,
    "type": "medium",
    "scheduled": true
  },
  {
    "name": "Bodø Airport",
    "city": "Bodø",
    "country": "NO",
    "iata": "BOO",
    "icao": "ENBO",
    "lat": 67.269203,
    "lon": 14.3653,
    "type": "medium",
    "scheduled": true
  },
  {
    "name": "Bergen Airport, Flesland",
    "city": "Bergen",
    "country": "NO",
    "iata": "BGO",
    "icao": "ENBR",
    "lat": 60.2934,
    "lon": 5.21814,
    "type": "large",
    "scheduled": true
  },
  {
    "name": "Båtsfjord Airport",
    "city": "Båtsfjord",
    "country": "NO",
    "iata": "BJF",
    "icao": "ENBS",
    "lat": 70.60025,
    "lon": 29.692612,
    "type": "medium",
    "scheduled": true
  },
  {
    "name": "Berlevåg Airport",
    "city": "Berlevåg",
    "country": "NO",
    "iata": "BVG",
    "icao": "ENBV",
    "lat": 70.871517,
    "lon": 29.034097,
    "type": "medium",
    "scheduled": true
  },
  {
    "name": "Kristiansand Airport, Kjevik",
    "city": "Kjevik",
    "country": "NO",
    "iata": "KRS",
    "icao": "ENCN",
    "lat": 58.204201,
    "lon": 8.08537,
    "type": "medium",
    "scheduled": true
  },
  {
    "name": "Bardufoss Airport",
    "city": "Målselv",
    "country": "NO",
    "iata": "BDU",
    "icao": "ENDU",
    "lat": 69.055801,
    "lon": 18.5404,
    "type": "medium",
    "scheduled": true
  },
  {
    "name": "Harstad/Narvik Airport, Evenes",
    "city": "Evenes",
    "country": "NO",
    "iata": "EVE",
    "icao": "ENEV",
    "lat": 68.491302490234,
    "lon": 16.678100585938,
    "type": "medium",
    "scheduled": true
  },
  {
    "name": "Florø Airport",
    "city": "Florø",
    "country": "NO",
    "iata": "FRO",
    "icao": "ENFL",
    "lat": 61.583599090576,
    "lon": 5.0247201919556,
    "type": "medium",
    "scheduled": true
  },
  {
    "name": "Oslo-Gardermoen International Airport",
    "city": "Oslo (Gardermoen)",
    "country": "NO",
    "iata": "OSL",
    "icao": "ENGM",
    "lat": 60.193901,
    "lon": 11.1004,
    "type": "large",
    "scheduled": true
  },
  {
    "name": "Haugesund Airport, Karmøy",
    "city": "Karmøy",
    "country": "NO",
    "iata": "HAU",
    "icao": "ENHD",
    "lat": 59.345299,
    "lon": 5.20836,
    "type": "medium",
    "scheduled": true
  },
  {
    "name": "Hammerfest Airport",
    "city": "Hammerfest",
    "country": "NO",
    "iata": "HFT",
    "icao": "ENHF",
    "lat": 70.679703,
    "lon": 23.6686,
    "type": "medium",
    "scheduled": true
  },
  {
    "name": "Honningsvåg Airport, Valan",
    "city": "Honningsvåg",
    "country": "NO",
    "iata": "HVG",
    "icao": "ENHV",
    "lat": 71.009697,
    "lon": 25.983601,
    "type": "medium",
    "scheduled": true
  },
  {
    "name": "Kristiansund Airport, Kvernberget",
    "city": "Kvernberget",
    "country": "NO",
    "iata": "KSU",
    "icao": "ENKB",
    "lat": 63.111801,
    "lon": 7.82452,
    "type": "medium",
    "scheduled": true
  },
  {
    "name": "Kirkenes Airport, Høybuktmoen",
    "city": "Kirkenes",
    "country": "NO",
    "iata": "KKN",
    "icao": "ENKR",
    "lat": 69.7258,
    "lon": 29.8913,
    "type": "medium",
    "scheduled": true
  },
  {
    "name": "Leknes Airport",
    "city": "Leknes",
    "country": "NO",
    "iata": "LKN",
    "icao": "ENLK",
    "lat": 68.152496337891,
    "lon": 13.609399795532,
    "type": "medium",
    "scheduled": true
  },
  {
    "name": "Mehamn Airport",
    "city": "Mehamn",
    "country": "NO",
    "iata": "MEH",
    "icao": "ENMH",
    "lat": 71.029701,
    "lon": 27.8267,
    "type": "medium",
    "scheduled": true
  },
  {
    "name": "Molde Airport, Årø",
    "city": "Årø",
    "country": "NO",
    "iata": "MOL",
    "icao": "ENML",
    "lat": 62.744701,
    "lon": 7.2625,
    "type": "medium",
    "scheduled": true
  },
  {
    "name": "Mosjøen Airport, Kjærstad",
    "city": "Mosjøen",
    "country": "NO",
    "iata": "MJF",
    "icao": "ENMS",
    "lat": 65.783997,
    "lon": 13.2149,
    "type": "medium",
    "scheduled": true
  },
  {
    "name": "Lakselv Airport, Banak",
    "city": "Lakselv",
    "country": "NO",
    "iata": "LKL",
    "icao": "ENNA",
    "lat": 70.068802,
    "lon": 24.973499,
    "type": "medium",
    "scheduled": true
  },
  {
    "name": "Ørland Airport",
    "city": "Ørland",
    "country": "NO",
    "iata": "OLA",
    "icao": "ENOL",
    "lat": 63.69889831542969,
    "lon": 9.604000091552734,
    "type": "medium",
    "scheduled": true
  },
  {
    "name": "Ørsta-Volda Airport, Hovden",
    "city": "Ørsta",
    "country": "NO",
    "iata": "HOV",
    "icao": "ENOV",
    "lat": 62.180000305176,
    "lon": 6.0741000175476,
    "type": "medium",
    "scheduled": true
  },
  {
    "name": "Mo i Rana Airport, Røssvoll",
    "city": "Mo i Rana",
    "country": "NO",
    "iata": "MQN",
    "icao": "ENRA",
    "lat": 66.363899230957,
    "lon": 14.301400184631,
    "type": "medium",
    "scheduled": true
  },
  {
    "name": "Rørvik Airport, Ryum",
    "city": "Rørvik",
    "country": "NO",
    "iata": "RVK",
    "icao": "ENRM",
    "lat": 64.838302612305,
    "lon": 11.14610004425,
    "type": "medium",
    "scheduled": true
  },
  {
    "name": "Røros Airport",
    "city": "Røros",
    "country": "NO",
    "iata": "RRS",
    "icao": "ENRO",
    "lat": 62.578399658203,
    "lon": 11.342300415039,
    "type": "medium",
    "scheduled": true
  },
  {
    "name": "Svalbard Airport",
    "city": "Longyearbyen",
    "country": "NO",
    "iata": "LYR",
    "icao": "ENSB",
    "lat": 78.246101,
    "lon": 15.4656,
    "type": "medium",
    "scheduled": true
  },
  {
    "name": "Svolvær Airport, Helle",
    "city": "Svolvær",
    "country": "NO",
    "iata": "SVJ",
    "icao": "ENSH",
    "lat": 68.243301,
    "lon": 14.6692,
    "type": "medium",
    "scheduled": true
  },
  {
    "name": "Stokmarknes Airport, Skagen",
    "city": "Hadsel",
    "country": "NO",
    "iata": "SKN",
    "icao": "ENSK",
    "lat": 68.578827,
    "lon": 15.033417,
    "type": "medium",
    "scheduled": true
  },
  {
    "name": "Stord Airport, Sørstokken",
    "city": "Leirvik",
    "country": "NO",
    "iata": "SRP",
    "icao": "ENSO",
    "lat": 59.791901,
    "lon": 5.34085,
    "type": "medium",
    "scheduled": true
  },
  {
    "name": "Sørkjosen Airport",
    "city": "Sørkjosen",
    "country": "NO",
    "iata": "SOJ",
    "icao": "ENSR",
    "lat": 69.786797,
    "lon": 20.9594,
    "type": "medium",
    "scheduled": true
  },
  {
    "name": "Vardø Airport, Svartnes",
    "city": "Vardø",
    "country": "NO",
    "iata": "VAW",
    "icao": "ENSS",
    "lat": 70.3554,
    "lon": 31.044901,
    "type": "medium",
    "scheduled": true
  },
  {
    "name": "Sandnessjøen Airport, Stokka",
    "city": "Alstahaug",
    "country": "NO",
    "iata": "SSJ",
    "icao": "ENST",
    "lat": 65.956802,
    "lon": 12.4689,
    "type": "medium",
    "scheduled": true
  },
  {
    "name": "Tromsø Airport, Langnes",
    "city": "Tromsø",
    "country": "NO",
    "iata": "TOS",
    "icao": "ENTC",
    "lat": 69.683296,
    "lon": 18.9189,
    "type": "large",
    "scheduled": true
  },
  {
    "name": "Sandefjord Airport, Torp",
    "city": "Torp",
    "country": "NO",
    "iata": "TRF",
    "icao": "ENTO",
    "lat": 59.186699,
    "lon": 10.2586,
    "type": "medium",
    "scheduled": true
  },
  {
    "name": "Trondheim Airport, Værnes",
    "city": "Trondheim",
    "country": "NO",
    "iata": "TRD",
    "icao": "ENVA",
    "lat": 63.457802,
    "lon": 10.924,
    "type": "large",
    "scheduled": true
  },
  {
    "name": "Vadsø Airport",
    "city": "Vadsø",
    "country": "NO",
    "iata": "VDS",
    "icao": "ENVD",
    "lat": 70.0653,
    "lon": 29.8447,
    "type": "medium",
    "scheduled": true
  },
  {
    "name": "Stavanger Airport, Sola",
    "city": "Stavanger",
    "country": "NO",
    "iata": "SVG",
    "icao": "ENZV",
    "lat": 58.876701,
    "lon": 5.63778,
    "type": "large",
    "scheduled": true
  },
  {
    "name": "Ignacy Jan Paderewski Bydgoszcz Airport",
    "city": "Bydgoszcz",
    "country": "PL",
    "iata": "BZG",
    "icao": "EPBY",
    "lat": 53.096802,
    "lon": 17.977699,
    "type": "medium",
    "scheduled": true
  },
  {
    "name": "Gdańsk Lech Wałęsa Airport",
    "city": "Gdańsk",
    "country": "PL",
    "iata": "GDN",
    "icao": "EPGD",
    "lat": 54.377602,
    "lon": 18.4662,
    "type": "large",
    "scheduled": true
  },
  {
    "name": "Kraków John Paul II International Airport",
    "city": "Balice",
    "country": "PL",
    "iata": "KRK",
    "icao": "EPKK",
    "lat": 50.077702,
    "lon": 19.7848,
    "type": "large",
    "scheduled": true
  },
  {
    "name": "Katowice Wojciech Korfanty International Airport",
    "city": "Katowice",
    "country": "PL",
    "iata": "KTW",
    "icao": "EPKT",
    "lat": 50.476015,
    "lon": 19.080705,
    "type": "large",
    "scheduled": true
  },
  {
    "name": "Lublin Airport",
    "city": "Lublin",
    "country": "PL",
    "iata": "LUZ",
    "icao": "EPLB",
    "lat": 51.240157,
    "lon": 22.713461,
    "type": "large",
    "scheduled": true
  },
  {
    "name": "Łódź Władysław Reymont Airport",
    "city": "Łódź",
    "country": "PL",
    "iata": "LCJ",
    "icao": "EPLL",
    "lat": 51.721901,
    "lon": 19.3981,
    "type": "large",
    "scheduled": true
  },
  {
    "name": "Warsaw Modlin Airport",
    "city": "Nowy Dwór Mazowiecki",
    "country": "PL",
    "iata": "WMI",
    "icao": "EPMO",
    "lat": 52.451099,
    "lon": 20.6518,
    "type": "large",
    "scheduled": true
  },
  {
    "name": "Poznań-Ławica Airport",
    "city": "Poznań",
    "country": "PL",
    "iata": "POZ",
    "icao": "EPPO",
    "lat": 52.421598,
    "lon": 16.823359,
    "type": "large",
    "scheduled": true
  },
  {
    "name": "Warsaw Radom Airport",
    "city": "Radom",
    "country": "PL",
    "iata": "RDO",
    "icao": "EPRA",
    "lat": 51.38937,
    "lon": 21.214742,
    "type": "medium",
    "scheduled": true
  },
  {
    "name": "Rzeszów-Jasionka Airport",
    "city": "Jasionka",
    "country": "PL",
    "iata": "RZE",
    "icao": "EPRZ",
    "lat": 50.109791,
    "lon": 22.024155,
    "type": "large",
    "scheduled": true
  },
  {
    "name": "Solidarity Szczecin–Goleniów Airport",
    "city": "Glewice",
    "country": "PL",
    "iata": "SZZ",
    "icao": "EPSC",
    "lat": 53.584702,
    "lon": 14.9022,
    "type": "medium",
    "scheduled": true
  },
  {
    "name": "Olsztyn-Mazury Airport",
    "city": "Szymany",
    "country": "PL",
    "iata": "SZY",
    "icao": "EPSY",
    "lat": 53.481899,
    "lon": 20.9377,
    "type": "medium",
    "scheduled": true
  },
  {
    "name": "Warsaw Chopin Airport",
    "city": "Warsaw",
    "country": "PL",
    "iata": "WAW",
    "icao": "EPWA",
    "lat": 52.165699,
    "lon": 20.9671,
    "type": "large",
    "scheduled": true
  },
  {
    "name": "Copernicus Wrocław Airport",
    "city": "Wrocław",
    "country": "PL",
    "iata": "WRO",
    "icao": "EPWR",
    "lat": 51.103719,
    "lon": 16.882096,
    "type": "large",
    "scheduled": true
  },
  {
    "name": "Zielona Góra-Babimost Airport",
    "city": "Nowe Kramsko",
    "country": "PL",
    "iata": "IEG",
    "icao": "EPZG",
    "lat": 52.1385,
    "lon": 15.7986,
    "type": "medium",
    "scheduled": true
  },
  {
    "name": "Ronneby Airport",
    "city": "Ronneby",
    "country": "SE",
    "iata": "RNB",
    "icao": "ESDF",
    "lat": 56.266701,
    "lon": 15.265,
    "type": "medium",
    "scheduled": true
  },
  {
    "name": "Göteborg Landvetter Airport",
    "city": "Göteborg",
    "country": "SE",
    "iata": "GOT",
    "icao": "ESGG",
    "lat": 57.6628,
    "lon": 12.2798,
    "type": "large",
    "scheduled": true
  },
  {
    "name": "Jönköping Airport",
    "city": "Jönköping",
    "country": "SE",
    "iata": "JKG",
    "icao": "ESGJ",
    "lat": 57.757598876953125,
    "lon": 14.068699836730957,
    "type": "medium",
    "scheduled": true
  },
  {
    "name": "Trollhättan-Vänersborg Airport",
    "city": "Trollhättan",
    "country": "SE",
    "iata": "THN",
    "icao": "ESGT",
    "lat": 58.31809997558594,
    "lon": 12.345000267028809,
    "type": "medium",
    "scheduled": true
  },
  {
    "name": "Mora Airport",
    "city": "Mora",
    "country": "SE",
    "iata": "MXX",
    "icao": "ESKM",
    "lat": 60.957901,
    "lon": 14.5114,
    "type": "medium",
    "scheduled": true
  },
  {
    "name": "Stockholm Skavsta Airport",
    "city": "Nyköping",
    "country": "SE",
    "iata": "NYO",
    "icao": "ESKN",
    "lat": 58.789656,
    "lon": 16.911479,
    "type": "large",
    "scheduled": true
  },
  {
    "name": "Scandinavian Mountains Airport",
    "city": "Malung-Sälen",
    "country": "SE",
    "iata": "SCR",
    "icao": "ESKS",
    "lat": 61.158393,
    "lon": 12.842503,
    "type": "medium",
    "scheduled": true
  },
  {
    "name": "Kalmar Airport",
    "city": "Kalmar",
    "country": "SE",
    "iata": "KLR",
    "icao": "ESMQ",
    "lat": 56.685501,
    "lon": 16.2876,
    "type": "medium",
    "scheduled": true
  },
  {
    "name": "Malmö Sturup Airport",
    "city": "Malmö",
    "country": "SE",
    "iata": "MMX",
    "icao": "ESMS",
    "lat": 55.535564,
    "lon": 13.376327,
    "type": "large",
    "scheduled": true
  },
  {
    "name": "Halmstad Airport",
    "city": "Halmstad",
    "country": "SE",
    "iata": "HAD",
    "icao": "ESMT",
    "lat": 56.69110107421875,
    "lon": 12.820199966430664,
    "type": "medium",
    "scheduled": true
  },
  {
    "name": "Växjö Kronoberg Airport",
    "city": "Växjö",
    "country": "SE",
    "iata": "VXO",
    "icao": "ESMX",
    "lat": 56.929100036621094,
    "lon": 14.727999687194824,
    "type": "medium",
    "scheduled": true
  },
  {
    "name": "Gällivare Airport",
    "city": "Gällivare",
    "country": "SE",
    "iata": "GEV",
    "icao": "ESNG",
    "lat": 67.13240051269531,
    "lon": 20.814599990844727,
    "type": "medium",
    "scheduled": true
  },
  {
    "name": "Kramfors-Sollefteå Höga Kusten Airport",
    "city": "Nyland",
    "country": "SE",
    "iata": "KRF",
    "icao": "ESNK",
    "lat": 63.048599,
    "lon": 17.7689,
    "type": "medium",
    "scheduled": true
  },
  {
    "name": "Lycksele Airport",
    "city": "Lycksele",
    "country": "SE",
    "iata": "LYC",
    "icao": "ESNL",
    "lat": 64.548302,
    "lon": 18.7162,
    "type": "medium",
    "scheduled": true
  },
  {
    "name": "Sundsvall-Härnösand Airport",
    "city": "Sundsvall/ Härnösand",
    "country": "SE",
    "iata": "SDL",
    "icao": "ESNN",
    "lat": 62.528099060058594,
    "lon": 17.443899154663086,
    "type": "medium",
    "scheduled": true
  },
  {
    "name": "Örnsköldsvik Airport",
    "city": "Örnsköldsvik",
    "country": "SE",
    "iata": "OER",
    "icao": "ESNO",
    "lat": 63.40829849243164,
    "lon": 18.989999771118164,
    "type": "medium",
    "scheduled": true
  },
  {
    "name": "Kiruna Airport",
    "city": "Kiruna",
    "country": "SE",
    "iata": "KRN",
    "icao": "ESNQ",
    "lat": 67.821999,
    "lon": 20.3368,
    "type": "large",
    "scheduled": true
  },
  {
    "name": "Skellefteå Airport",
    "city": "Skellefteå",
    "country": "SE",
    "iata": "SFT",
    "icao": "ESNS",
    "lat": 64.62480163574219,
    "lon": 21.076900482177734,
    "type": "medium",
    "scheduled": true
  },
  {
    "name": "Umeå Airport",
    "city": "Umeå",
    "country": "SE",
    "iata": "UME",
    "icao": "ESNU",
    "lat": 63.791801,
    "lon": 20.282801,
    "type": "large",
    "scheduled": true
  },
  {
    "name": "Vilhelmina South Lapland Airport",
    "city": "Vilhelmina",
    "country": "SE",
    "iata": "VHM",
    "icao": "ESNV",
    "lat": 64.579102,
    "lon": 16.833599,
    "type": "medium",
    "scheduled": true
  },
  {
    "name": "Arvidsjaur Airport",
    "city": "Arvidsjaur",
    "country": "SE",
    "iata": "AJR",
    "icao": "ESNX",
    "lat": 65.59030151367188,
    "lon": 19.28190040588379,
    "type": "medium",
    "scheduled": true
  },
  {
    "name": "Åre Östersund Airport",
    "city": "Östersund",
    "country": "SE",
    "iata": "OSD",
    "icao": "ESNZ",
    "lat": 63.194135,
    "lon": 14.500322,
    "type": "medium",
    "scheduled": true
  },
  {
    "name": "Örebro Airport",
    "city": "Örebro",
    "country": "SE",
    "iata": "ORB",
    "icao": "ESOE",
    "lat": 59.22370147705078,
    "lon": 15.038000106811523,
    "type": "medium",
    "scheduled": true
  },
  {
    "name": "Karlstad Airport",
    "city": "Karlstad",
    "country": "SE",
    "iata": "KSD",
    "icao": "ESOK",
    "lat": 59.444698,
    "lon": 13.3374,
    "type": "medium",
    "scheduled": true
  },
  {
    "name": "Stockholm Västerås Airport",
    "city": "Stockholm / Västerås",
    "country": "SE",
    "iata": "VST",
    "icao": "ESOW",
    "lat": 59.589401,
    "lon": 16.6336,
    "type": "large",
    "scheduled": true
  },
  {
    "name": "Luleå Airport",
    "city": "Luleå",
    "country": "SE",
    "iata": "LLA",
    "icao": "ESPA",
    "lat": 65.5438,
    "lon": 22.122,
    "type": "large",
    "scheduled": true
  },
  {
    "name": "Stockholm-Arlanda Airport",
    "city": "Stockholm",
    "country": "SE",
    "iata": "ARN",
    "icao": "ESSA",
    "lat": 59.64849,
    "lon": 17.928829,
    "type": "large",
    "scheduled": true
  },
  {
    "name": "Stockholm-Bromma Airport",
    "city": "Stockholm",
    "country": "SE",
    "iata": "BMA",
    "icao": "ESSB",
    "lat": 59.354401,
    "lon": 17.9417,
    "type": "medium",
    "scheduled": true
  },
  {
    "name": "Dala Airport",
    "city": "Borlange",
    "country": "SE",
    "iata": "BLE",
    "icao": "ESSD",
    "lat": 60.422001,
    "lon": 15.5152,
    "type": "medium",
    "scheduled": true
  },
  {
    "name": "Linköping City Airport",
    "city": "Linköping",
    "country": "SE",
    "iata": "LPI",
    "icao": "ESSL",
    "lat": 58.404909,
    "lon": 15.684499,
    "type": "large",
    "scheduled": true
  },
  {
    "name": "Norrköping Airport",
    "city": "Norrköping",
    "country": "SE",
    "iata": "NRK",
    "icao": "ESSP",
    "lat": 58.586299896240234,
    "lon": 16.250600814819336,
    "type": "medium",
    "scheduled": true
  },
  {
    "name": "Torsby Airport",
    "city": "Torsby",
    "country": "SE",
    "iata": "TYF",
    "icao": "ESST",
    "lat": 60.1576,
    "lon": 12.9913,
    "type": "medium",
    "scheduled": true
  },
  {
    "name": "Visby Airport",
    "city": "Visby",
    "country": "SE",
    "iata": "VBY",
    "icao": "ESSV",
    "lat": 57.662799835205,
    "lon": 18.346200942993,
    "type": "medium",
    "scheduled": true
  },
  {
    "name": "Ängelholm-Helsingborg Airport",
    "city": "Ängelholm",
    "country": "SE",
    "iata": "AGH",
    "icao": "ESTA",
    "lat": 56.29610061645508,
    "lon": 12.847100257873535,
    "type": "medium",
    "scheduled": true
  },
  {
    "name": "Sea-Airport Cuxhaven/Nordholz / Nordholz Naval Airbase",
    "city": "Wurster Nordseeküste",
    "country": "DE",
    "iata": "FCN",
    "icao": "ETMN",
    "lat": 53.767689,
    "lon": 8.659201,
    "type": "medium",
    "scheduled": true
  },
  {
    "name": "Rostock-Laage Airport",
    "city": "Laage",
    "country": "DE",
    "iata": "RLG",
    "icao": "ETNL",
    "lat": 53.918201,
    "lon": 12.2783,
    "type": "medium",
    "scheduled": true
  },
  {
    "name": "Riga International Airport",
    "city": "Riga",
    "country": "LV",
    "iata": "RIX",
    "icao": "EVRA",
    "lat": 56.920752,
    "lon": 23.970711,
    "type": "large",
    "scheduled": true
  },
  {
    "name": "Kaunas International Airport",
    "city": "Kaunas",
    "country": "LT",
    "iata": "KUN",
    "icao": "EYKA",
    "lat": 54.963965,
    "lon": 24.08582,
    "type": "large",
    "scheduled": true
  },
  {
    "name": "Palanga International Airport",
    "city": "Palanga",
    "country": "LT",
    "iata": "PLQ",
    "icao": "EYPA",
    "lat": 55.973202,
    "lon": 21.093901,
    "type": "large",
    "scheduled": true
  },
  {
    "name": "Vilnius International Airport",
    "city": "Vilnius",
    "country": "LT",
    "iata": "VNO",
    "icao": "EYVI",
    "lat": 54.634102,
    "lon": 25.285801,
    "type": "large",
    "scheduled": true
  },
  {
    "name": "Tirana International Airport Mother Teresa",
    "city": "Rinas",
    "country": "AL",
    "iata": "TIA",
    "icao": "LATI",
    "lat": 41.4147,
    "lon": 19.7206,
    "type": "large",
    "scheduled": true
  },
  {
    "name": "Burgas Airport",
    "city": "Burgas",
    "country": "BG",
    "iata": "BOJ",
    "icao": "LBBG",
    "lat": 42.569917,
    "lon": 27.515173,
    "type": "large",
    "scheduled": true
  },
  {
    "name": "Plovdiv International Airport",
    "city": "Plovdiv",
    "country": "BG",
    "iata": "PDV",
    "icao": "LBPD",
    "lat": 42.067799,
    "lon": 24.8508,
    "type": "large",
    "scheduled": true
  },
  {
    "name": "Sofia Airport",
    "city": "Sofia",
    "country": "BG",
    "iata": "SOF",
    "icao": "LBSF",
    "lat": 42.696357,
    "lon": 23.417671,
    "type": "large",
    "scheduled": true
  },
  {
    "name": "Varna Airport",
    "city": "Varna",
    "country": "BG",
    "iata": "VAR",
    "icao": "LBWN",
    "lat": 43.232101,
    "lon": 27.8251,
    "type": "large",
    "scheduled": true
  },
  {
    "name": "Dubrovnik Ruđer Bošković Airport",
    "city": "Čilipi",
    "country": "HR",
    "iata": "DBV",
    "icao": "LDDU",
    "lat": 42.562247,
    "lon": 18.265543,
    "type": "medium",
    "scheduled": true
  },
  {
    "name": "Osijek Airport",
    "city": "Klisa",
    "country": "HR",
    "iata": "OSI",
    "icao": "LDOS",
    "lat": 45.462355,
    "lon": 18.811278,
    "type": "medium",
    "scheduled": true
  },
  {
    "name": "Pula Airport",
    "city": "Pula",
    "country": "HR",
    "iata": "PUY",
    "icao": "LDPL",
    "lat": 44.893501,
    "lon": 13.9222,
    "type": "medium",
    "scheduled": true
  },
  {
    "name": "Rijeka Airport",
    "city": "Omišalj",
    "country": "HR",
    "iata": "RJK",
    "icao": "LDRI",
    "lat": 45.2169,
    "lon": 14.5703,
    "type": "medium",
    "scheduled": true
  },
  {
    "name": "Brač Airport",
    "city": "Gornji Humac",
    "country": "HR",
    "iata": "BWK",
    "icao": "LDSB",
    "lat": 43.284454,
    "lon": 16.678362,
    "type": "medium",
    "scheduled": true
  },
  {
    "name": "Split Airport",
    "city": "Kaštel Štafilić",
    "country": "HR",
    "iata": "SPU",
    "icao": "LDSP",
    "lat": 43.538898,
    "lon": 16.298,
    "type": "medium",
    "scheduled": true
  },
  {
    "name": "Zagreb Franjo Tuđman International Airport",
    "city": "Velika Gorica",
    "country": "HR",
    "iata": "ZAG",
    "icao": "LDZA",
    "lat": 45.742901,
    "lon": 16.0688,
    "type": "large",
    "scheduled": true
  },
  {
    "name": "Zadar Airport",
    "city": "Zemunik Donji (Zadar)",
    "country": "HR",
    "iata": "ZAD",
    "icao": "LDZD",
    "lat": 44.094988,
    "lon": 15.354879,
    "type": "medium",
    "scheduled": true
  },
  {
    "name": "Alicante-Elche Miguel Hernández Airport",
    "city": "Alicante",
    "country": "ES",
    "iata": "ALC",
    "icao": "LEAL",
    "lat": 38.2822,
    "lon": -0.558156,
    "type": "large",
    "scheduled": true
  },
  {
    "name": "Almería Airport",
    "city": "Almería",
    "country": "ES",
    "iata": "LEI",
    "icao": "LEAM",
    "lat": 36.843899,
    "lon": -2.3701,
    "type": "medium",
    "scheduled": true
  },
  {
    "name": "Asturias Airport",
    "city": "Ranón",
    "country": "ES",
    "iata": "OVD",
    "icao": "LEAS",
    "lat": 43.563599,
    "lon": -6.03462,
    "type": "large",
    "scheduled": true
  },
  {
    "name": "Josep Tarradellas Barcelona-El Prat Airport",
    "city": "Barcelona",
    "country": "ES",
    "iata": "BCN",
    "icao": "LEBL",
    "lat": 41.2971,
    "lon": 2.07846,
    "type": "large",
    "scheduled": true
  },
  {
    "name": "Badajoz Airport",
    "city": "Badajoz",
    "country": "ES",
    "iata": "BJZ",
    "icao": "LEBZ",
    "lat": 38.8913,
    "lon": -6.82133,
    "type": "medium",
    "scheduled": true
  },
  {
    "name": "Castellón-Costa Azahar Airport",
    "city": "Castellón de la Plana",
    "country": "ES",
    "iata": "CDT",
    "icao": "LECH",
    "lat": 40.213889,
    "lon": 0.073333,
    "type": "medium",
    "scheduled": true
  },
  {
    "name": "A Coruña Airport",
    "city": "Culleredo",
    "country": "ES",
    "iata": "LCG",
    "icao": "LECO",
    "lat": 43.302101,
    "lon": -8.37726,
    "type": "medium",
    "scheduled": true
  },
  {
    "name": "Lleida-Alguaire Airport",
    "city": "Lleida",
    "country": "ES",
    "iata": "ILD",
    "icao": "LEDA",
    "lat": 41.728185,
    "lon": 0.535023,
    "type": "medium",
    "scheduled": true
  },
  {
    "name": "Girona-Costa Brava Airport",
    "city": "Girona",
    "country": "ES",
    "iata": "GRO",
    "icao": "LEGE",
    "lat": 41.904639,
    "lon": 2.761774,
    "type": "medium",
    "scheduled": true
  },
  {
    "name": "F.G.L. Airport Granada-Jaén Airport",
    "city": "Granada",
    "country": "ES",
    "iata": "GRX",
    "icao": "LEGR",
    "lat": 37.188702,
    "lon": -3.77736,
    "type": "medium",
    "scheduled": true
  },
  {
    "name": "Ibiza Airport",
    "city": "Ibiza (Eivissa)",
    "country": "ES",
    "iata": "IBZ",
    "icao": "LEIB",
    "lat": 38.872898,
    "lon": 1.37312,
    "type": "large",
    "scheduled": true
  },
  {
    "name": "Jerez Airport",
    "city": "Jerez de la Frontera",
    "country": "ES",
    "iata": "XRY",
    "icao": "LEJR",
    "lat": 36.744598,
    "lon": -6.06011,
    "type": "medium",
    "scheduled": true
  },
  {
    "name": "Adolfo Suárez Madrid–Barajas Airport",
    "city": "Madrid",
    "country": "ES",
    "iata": "MAD",
    "icao": "LEMD",
    "lat": 40.471926,
    "lon": -3.56264,
    "type": "large",
    "scheduled": true
  },
  {
    "name": "Málaga-Costa del Sol Airport",
    "city": "Málaga",
    "country": "ES",
    "iata": "AGP",
    "icao": "LEMG",
    "lat": 36.6749,
    "lon": -4.49911,
    "type": "large",
    "scheduled": true
  },
  {
    "name": "Menorca Airport",
    "city": "Mahón (Maó)",
    "country": "ES",
    "iata": "MAH",
    "icao": "LEMH",
    "lat": 39.862598,
    "lon": 4.21865,
    "type": "medium",
    "scheduled": true
  },
  {
    "name": "Palma de Mallorca Airport",
    "city": "Palma de Mallorca",
    "country": "ES",
    "iata": "PMI",
    "icao": "LEPA",
    "lat": 39.551701,
    "lon": 2.73881,
    "type": "large",
    "scheduled": true
  },
  {
    "name": "Pamplona Airport",
    "city": "Pamplona",
    "country": "ES",
    "iata": "PNA",
    "icao": "LEPP",
    "lat": 42.77,
    "lon": -1.64633,
    "type": "medium",
    "scheduled": true
  },
  {
    "name": "Reus Airport",
    "city": "Reus",
    "country": "ES",
    "iata": "REU",
    "icao": "LERS",
    "lat": 41.147509,
    "lon": 1.168354,
    "type": "large",
    "scheduled": true
  },
  {
    "name": "Salamanca Airport",
    "city": "Salamanca",
    "country": "ES",
    "iata": "SLM",
    "icao": "LESA",
    "lat": 40.952099,
    "lon": -5.50199,
    "type": "medium",
    "scheduled": true
  },
  {
    "name": "San Sebastián Airport",
    "city": "Hondarribia",
    "country": "ES",
    "iata": "EAS",
    "icao": "LESO",
    "lat": 43.356499,
    "lon": -1.79061,
    "type": "medium",
    "scheduled": true
  },
  {
    "name": "Santiago-Rosalía de Castro Airport",
    "city": "Santiago de Compostela",
    "country": "ES",
    "iata": "SCQ",
    "icao": "LEST",
    "lat": 42.896301,
    "lon": -8.41514,
    "type": "large",
    "scheduled": true
  },
  {
    "name": "Valencia Airport",
    "city": "Valencia",
    "country": "ES",
    "iata": "VLC",
    "icao": "LEVC",
    "lat": 39.4893,
    "lon": -0.481625,
    "type": "large",
    "scheduled": true
  },
  {
    "name": "Valladolid Airport",
    "city": "Valladolid",
    "country": "ES",
    "iata": "VLL",
    "icao": "LEVD",
    "lat": 41.7061,
    "lon": -4.85194,
    "type": "medium",
    "scheduled": true
  },
  {
    "name": "Vitoria Airport",
    "city": "Alava",
    "country": "ES",
    "iata": "VIT",
    "icao": "LEVT",
    "lat": 42.882801,
    "lon": -2.72447,
    "type": "medium",
    "scheduled": true
  },
  {
    "name": "Vigo Airport",
    "city": "Vigo",
    "country": "ES",
    "iata": "VGO",
    "icao": "LEVX",
    "lat": 42.2318,
    "lon": -8.62677,
    "type": "medium",
    "scheduled": true
  },
  {
    "name": "Seve Ballesteros-Santander Airport",
    "city": "Santander",
    "country": "ES",
    "iata": "SDR",
    "icao": "LEXJ",
    "lat": 43.427101,
    "lon": -3.82001,
    "type": "medium",
    "scheduled": true
  },
  {
    "name": "Sevilla Airport",
    "city": "Sevilla",
    "country": "ES",
    "iata": "SVQ",
    "icao": "LEZL",
    "lat": 37.417999,
    "lon": -5.89311,
    "type": "medium",
    "scheduled": true
  },
  {
    "name": "Bordeaux–Mérignac Airport",
    "city": "Bordeaux",
    "country": "FR",
    "iata": "BOD",
    "icao": "LFBD",
    "lat": 44.82865,
    "lon": -0.715356,
    "type": "large",
    "scheduled": true
  },
  {
    "name": "Bergerac Dordogne-Périgord airport",
    "city": "Bergerac",
    "country": "FR",
    "iata": "EGC",
    "icao": "LFBE",
    "lat": 44.825298,
    "lon": 0.518611,
    "type": "medium",
    "scheduled": true
  },
  {
    "name": "La Rochelle Île de Ré Airport",
    "city": "La Rochelle",
    "country": "FR",
    "iata": "LRH",
    "icao": "LFBH",
    "lat": 46.179199,
    "lon": -1.19528,
    "type": "medium",
    "scheduled": true
  },
  {
    "name": "Poitiers-Biard Airport",
    "city": "Poitiers/Biard",
    "country": "FR",
    "iata": "PIS",
    "icao": "LFBI",
    "lat": 46.5877,
    "lon": 0.306666,
    "type": "medium",
    "scheduled": true
  },
  {
    "name": "Limoges Airport",
    "city": "Limoges/Bellegarde",
    "country": "FR",
    "iata": "LIG",
    "icao": "LFBL",
    "lat": 45.862801,
    "lon": 1.17944,
    "type": "medium",
    "scheduled": true
  },
  {
    "name": "Toulouse-Blagnac Airport",
    "city": "Toulouse/Blagnac",
    "country": "FR",
    "iata": "TLS",
    "icao": "LFBO",
    "lat": 43.629101,
    "lon": 1.36382,
    "type": "large",
    "scheduled": true
  },
  {
    "name": "Pau Pyrénées Airport",
    "city": "Pau/Pyrénées (Uzein)",
    "country": "FR",
    "iata": "PUF",
    "icao": "LFBP",
    "lat": 43.380001,
    "lon": -0.418611,
    "type": "medium",
    "scheduled": true
  },
  {
    "name": "Tarbes-Lourdes-Pyrénées Airport",
    "city": "Tarbes/Lourdes/Pyrénées",
    "country": "FR",
    "iata": "LDE",
    "icao": "LFBT",
    "lat": 43.178699,
    "lon": -0.006439,
    "type": "medium",
    "scheduled": true
  },
  {
    "name": "Biarritz Pays Basque airport",
    "city": "Biarritz",
    "country": "FR",
    "iata": "BIQ",
    "icao": "LFBZ",
    "lat": 43.468372,
    "lon": -1.523223,
    "type": "medium",
    "scheduled": true
  },
  {
    "name": "Castres Mazamet Airport",
    "city": "Castres",
    "country": "FR",
    "iata": "DCM",
    "icao": "LFCK",
    "lat": 43.556301,
    "lon": 2.28918,
    "type": "medium",
    "scheduled": true
  },
  {
    "name": "Rodez–Aveyron Airport",
    "city": "Rodez/Marcillac",
    "country": "FR",
    "iata": "RDZ",
    "icao": "LFCR",
    "lat": 44.407902,
    "lon": 2.48267,
    "type": "medium",
    "scheduled": true
  },
  {
    "name": "Dole Tavaux Airport",
    "city": "Dole",
    "country": "FR",
    "iata": "DLE",
    "icao": "LFGJ",
    "lat": 47.038955,
    "lon": 5.427589,
    "type": "medium",
    "scheduled": true
  },
  {
    "name": "Metz-Nancy-Lorraine Airport",
    "city": "Goin",
    "country": "FR",
    "iata": "ETZ",
    "icao": "LFJL",
    "lat": 48.982101,
    "lon": 6.25132,
    "type": "medium",
    "scheduled": true
  },
  {
    "name": "Bastia-Poretta International airport",
    "city": "Bastia",
    "country": "FR",
    "iata": "BIA",
    "icao": "LFKB",
    "lat": 42.5527,
    "lon": 9.48373,
    "type": "large",
    "scheduled": true
  },
  {
    "name": "Calvi Sainte Catherine Airport",
    "city": "Calvi",
    "country": "FR",
    "iata": "CLY",
    "icao": "LFKC",
    "lat": 42.530422,
    "lon": 8.792984,
    "type": "medium",
    "scheduled": true
  },
  {
    "name": "Figari Sud-Corse Airport",
    "city": "Figari",
    "country": "FR",
    "iata": "FSC",
    "icao": "LFKF",
    "lat": 41.50185,
    "lon": 9.097092,
    "type": "large",
    "scheduled": true
  },
  {
    "name": "Ajaccio Napoléon Bonaparte airport",
    "city": "Ajaccio",
    "country": "FR",
    "iata": "AJA",
    "icao": "LFKJ",
    "lat": 41.923599,
    "lon": 8.80292,
    "type": "medium",
    "scheduled": true
  },
  {
    "name": "Chambéry Aix les Bains airport",
    "city": "Chambéry",
    "country": "FR",
    "iata": "CMF",
    "icao": "LFLB",
    "lat": 45.6381,
    "lon": 5.88023,
    "type": "medium",
    "scheduled": true
  },
  {
    "name": "Clermont-Ferrand Auvergne airport",
    "city": "Clermont-Ferrand",
    "country": "FR",
    "iata": "CFE",
    "icao": "LFLC",
    "lat": 45.786701,
    "lon": 3.16917,
    "type": "medium",
    "scheduled": true
  },
  {
    "name": "Lyon Saint-Exupéry Airport",
    "city": "Colombier-Saugnieu, Rhône",
    "country": "FR",
    "iata": "LYS",
    "icao": "LFLL",
    "lat": 45.725996,
    "lon": 5.090139,
    "type": "large",
    "scheduled": true
  },
  {
    "name": "Annecy Meythet airport",
    "city": "Annecy",
    "country": "FR",
    "iata": "NCY",
    "icao": "LFLP",
    "lat": 45.928947,
    "lon": 6.0987,
    "type": "medium",
    "scheduled": true
  },
  {
    "name": "Grenoble Alpes Isère Airport",
    "city": "Grenoble",
    "country": "FR",
    "iata": "GNB",
    "icao": "LFLS",
    "lat": 45.3629,
    "lon": 5.32937,
    "type": "medium",
    "scheduled": true
  },
  {
    "name": "Aurillac airport",
    "city": "Aurillac",
    "country": "FR",
    "iata": "AUR",
    "icao": "LFLW",
    "lat": 44.891399,
    "lon": 2.42194,
    "type": "medium",
    "scheduled": true
  },
  {
    "name": "Carcassonne Salvaza Airport",
    "city": "Carcassonne",
    "country": "FR",
    "iata": "CCF",
    "icao": "LFMK",
    "lat": 43.216,
    "lon": 2.30632,
    "type": "medium",
    "scheduled": true
  },
  {
    "name": "Marseille Provence Airport",
    "city": "Marignane, Bouches-du-Rhône",
    "country": "FR",
    "iata": "MRS",
    "icao": "LFML",
    "lat": 43.438088,
    "lon": 5.2125,
    "type": "large",
    "scheduled": true
  },
  {
    "name": "Nice-Côte d'Azur Airport",
    "city": "Nice, Alpes-Maritimes",
    "country": "FR",
    "iata": "NCE",
    "icao": "LFMN",
    "lat": 43.658401,
    "lon": 7.21587,
    "type": "large",
    "scheduled": true
  },
  {
    "name": "Perpignan-Rivesaltes (Llabanère) Airport",
    "city": "Perpignan/Rivesaltes",
    "country": "FR",
    "iata": "PGF",
    "icao": "LFMP",
    "lat": 42.740398,
    "lon": 2.87067,
    "type": "medium",
    "scheduled": true
  },
  {
    "name": "Montpellier-Méditerranée Airport",
    "city": "Montpellier/Méditerranée",
    "country": "FR",
    "iata": "MPL",
    "icao": "LFMT",
    "lat": 43.576199,
    "lon": 3.96301,
    "type": "medium",
    "scheduled": true
  },
  {
    "name": "Béziers Vias airport",
    "city": "Béziers",
    "country": "FR",
    "iata": "BZR",
    "icao": "LFMU",
    "lat": 43.323502,
    "lon": 3.3539,
    "type": "medium",
    "scheduled": true
  },
  {
    "name": "Avignon Caumont airport",
    "city": "Avignon",
    "country": "FR",
    "iata": "AVN",
    "icao": "LFMV",
    "lat": 43.907299,
    "lon": 4.90183,
    "type": "medium",
    "scheduled": true
  },
  {
    "name": "Beauvais-Tillé airport",
    "city": "Beauvais",
    "country": "FR",
    "iata": "BVA",
    "icao": "LFOB",
    "lat": 49.454399,
    "lon": 2.11278,
    "type": "large",
    "scheduled": true
  },
  {
    "name": "Chalons Vatry airport",
    "city": "Chalons en Champagne",
    "country": "FR",
    "iata": "XCR",
    "icao": "LFOK",
    "lat": 48.77333,
    "lon": 4.20611,
    "type": "medium",
    "scheduled": true
  },
  {
    "name": "Tours Val de Loire Airport",
    "city": "Tours, Indre-et-Loire",
    "country": "FR",
    "iata": "TUF",
    "icao": "LFOT",
    "lat": 47.432201,
    "lon": 0.727606,
    "type": "medium",
    "scheduled": true
  },
  {
    "name": "Paris-Le Bourget International Airport",
    "city": "Paris",
    "country": "FR",
    "iata": "LBG",
    "icao": "LFPB",
    "lat": 48.962276,
    "lon": 2.436539,
    "type": "large",
    "scheduled": true
  },
  {
    "name": "Charles de Gaulle International Airport",
    "city": "Paris (Roissy-en-France, Val-d'Oise)",
    "country": "FR",
    "iata": "CDG",
    "icao": "LFPG",
    "lat": 49.00896,
    "lon": 2.554117,
    "type": "large",
    "scheduled": true
  },
  {
    "name": "Paris-Orly Airport",
    "city": "Paris (Orly, Val-de-Marne)",
    "country": "FR",
    "iata": "ORY",
    "icao": "LFPO",
    "lat": 48.72333,
    "lon": 2.37944,
    "type": "large",
    "scheduled": true
  },
  {
    "name": "Lille Airport",
    "city": "Lesquin",
    "country": "FR",
    "iata": "LIL",
    "icao": "LFQQ",
    "lat": 50.566564,
    "lon": 3.102429,
    "type": "large",
    "scheduled": true
  },
  {
    "name": "Brest Bretagne airport",
    "city": "Brest",
    "country": "FR",
    "iata": "BES",
    "icao": "LFRB",
    "lat": 48.447899,
    "lon": -4.41854,
    "type": "large",
    "scheduled": true
  },
  {
    "name": "Dinard Pleurtuit Saint-Malo airport",
    "city": "Dinard",
    "country": "FR",
    "iata": "DNR",
    "icao": "LFRD",
    "lat": 48.5877,
    "lon": -2.07996,
    "type": "medium",
    "scheduled": true
  },
  {
    "name": "Deauville Normandie airport",
    "city": "Deauville",
    "country": "FR",
    "iata": "DOL",
    "icao": "LFRG",
    "lat": 49.365237,
    "lon": 0.154481,
    "type": "medium",
    "scheduled": true
  },
  {
    "name": "Lorient South Brittany (Bretagne Sud) Airport",
    "city": "Lorient/Lann/Bihoué",
    "country": "FR",
    "iata": "LRT",
    "icao": "LFRH",
    "lat": 47.760601,
    "lon": -3.44,
    "type": "medium",
    "scheduled": true
  },
  {
    "name": "Caen Carpiquet airport",
    "city": "Caen",
    "country": "FR",
    "iata": "CFR",
    "icao": "LFRK",
    "lat": 49.17678,
    "lon": -0.454883,
    "type": "medium",
    "scheduled": true
  },
  {
    "name": "Le Mans-Arnage Airport",
    "city": "Le Mans, Sarthe",
    "country": "FR",
    "iata": "LME",
    "icao": "LFRM",
    "lat": 47.948604,
    "lon": 0.201702,
    "type": "medium",
    "scheduled": true
  },
  {
    "name": "Rennes-Saint-Jacques Airport",
    "city": "Saint-Jacques-de-la-Lande, Ille-et-Vilaine",
    "country": "FR",
    "iata": "RNS",
    "icao": "LFRN",
    "lat": 48.0695,
    "lon": -1.73479,
    "type": "medium",
    "scheduled": true
  },
  {
    "name": "Nantes Atlantique Airport",
    "city": "Nantes",
    "country": "FR",
    "iata": "NTE",
    "icao": "LFRS",
    "lat": 47.153198,
    "lon": -1.61073,
    "type": "medium",
    "scheduled": true
  },
  {
    "name": "Saint-Nazaire-Montoir Airport",
    "city": "Saint-Nazaire/Montoir",
    "country": "FR",
    "iata": "SNR",
    "icao": "LFRZ",
    "lat": 47.31142,
    "lon": -2.152634,
    "type": "medium",
    "scheduled": true
  },
  {
    "name": "EuroAirport Basel–Mulhouse–Freiburg",
    "city": "Bâle / Mulhouse",
    "country": "FR",
    "iata": "BSL",
    "icao": "LFSB",
    "lat": 47.60068,
    "lon": 7.521117,
    "type": "large",
    "scheduled": true
  },
  {
    "name": "Dijon Longvic airport",
    "city": "Dijon",
    "country": "FR",
    "iata": "DIJ",
    "icao": "LFSD",
    "lat": 47.268902,
    "lon": 5.09,
    "type": "medium",
    "scheduled": true
  },
  {
    "name": "Brive Souillac airport",
    "city": "Brive",
    "country": "FR",
    "iata": "BVE",
    "icao": "LFSL",
    "lat": 45.039722,
    "lon": 1.485556,
    "type": "medium",
    "scheduled": true
  },
  {
    "name": "Strasbourg Airport",
    "city": "Strasbourg",
    "country": "FR",
    "iata": "SXB",
    "icao": "LFST",
    "lat": 48.5383,
    "lon": 7.62823,
    "type": "large",
    "scheduled": true
  },
  {
    "name": "Toulon-Hyères Airport",
    "city": "Hyères, Var",
    "country": "FR",
    "iata": "TLN",
    "icao": "LFTH",
    "lat": 43.097301,
    "lon": 6.14603,
    "type": "medium",
    "scheduled": true
  },
  {
    "name": "Nîmes-Arles-Camargue Airport",
    "city": "Nîmes/Garons",
    "country": "FR",
    "iata": "FNI",
    "icao": "LFTW",
    "lat": 43.757401,
    "lon": 4.41635,
    "type": "medium",
    "scheduled": true
  },
  {
    "name": "Alexandroupoli Democritus Airport",
    "city": "Alexandroupolis",
    "country": "GR",
    "iata": "AXD",
    "icao": "LGAL",
    "lat": 40.8559,
    "lon": 25.956301,
    "type": "medium",
    "scheduled": true
  },
  {
    "name": "Athens Eleftherios Venizelos International Airport",
    "city": "Spata-Artemida",
    "country": "GR",
    "iata": "ATH",
    "icao": "LGAV",
    "lat": 37.936401,
    "lon": 23.9445,
    "type": "large",
    "scheduled": true
  },
  {
    "name": "Nea Anchialos National Airport",
    "city": "Nea Anchialos",
    "country": "GR",
    "iata": "VOL",
    "icao": "LGBL",
    "lat": 39.219601,
    "lon": 22.7943,
    "type": "medium",
    "scheduled": true
  },
  {
    "name": "Chios Island National Airport",
    "city": "Chios Island",
    "country": "GR",
    "iata": "JKH",
    "icao": "LGHI",
    "lat": 38.34320068359375,
    "lon": 26.140600204467773,
    "type": "medium",
    "scheduled": true
  },
  {
    "name": "Ioannina King Pyrrhus National Airport",
    "city": "Ioannina",
    "country": "GR",
    "iata": "IOA",
    "icao": "LGIO",
    "lat": 39.6964,
    "lon": 20.8225,
    "type": "medium",
    "scheduled": true
  },
  {
    "name": "Heraklion International Nikos Kazantzakis Airport",
    "city": "Heraklion",
    "country": "GR",
    "iata": "HER",
    "icao": "LGIR",
    "lat": 35.339699,
    "lon": 25.1803,
    "type": "large",
    "scheduled": true
  },
  {
    "name": "Kefallinia Airport",
    "city": "Kefallinia Island",
    "country": "GR",
    "iata": "EFL",
    "icao": "LGKF",
    "lat": 38.12009811401367,
    "lon": 20.500499725341797,
    "type": "medium",
    "scheduled": true
  },
  {
    "name": "Kalamata Airport",
    "city": "Kalamata",
    "country": "GR",
    "iata": "KLX",
    "icao": "LGKL",
    "lat": 37.06829833984375,
    "lon": 22.02549934387207,
    "type": "medium",
    "scheduled": true
  },
  {
    "name": "Karpathos Airport",
    "city": "Karpathos Island",
    "country": "GR",
    "iata": "AOK",
    "icao": "LGKP",
    "lat": 35.421398,
    "lon": 27.146,
    "type": "medium",
    "scheduled": true
  },
  {
    "name": "Kavala Alexander the Great International Airport",
    "city": "Kavala",
    "country": "GR",
    "iata": "KVA",
    "icao": "LGKV",
    "lat": 40.9133,
    "lon": 24.6192,
    "type": "medium",
    "scheduled": true
  },
  {
    "name": "Kozani National Airport Filippos",
    "city": "Kozani",
    "country": "GR",
    "iata": "KZI",
    "icao": "LGKZ",
    "lat": 40.286098,
    "lon": 21.840799,
    "type": "medium",
    "scheduled": true
  },
  {
    "name": "Mykonos Island National Airport",
    "city": "Mykonos",
    "country": "GR",
    "iata": "JMK",
    "icao": "LGMK",
    "lat": 37.435101,
    "lon": 25.348101,
    "type": "medium",
    "scheduled": true
  },
  {
    "name": "Mytilene International Airport",
    "city": "Mytilene",
    "country": "GR",
    "iata": "MJT",
    "icao": "LGMT",
    "lat": 39.057406,
    "lon": 26.598629,
    "type": "medium",
    "scheduled": true
  },
  {
    "name": "Aktion National Airport",
    "city": "Preveza",
    "country": "GR",
    "iata": "PVK",
    "icao": "LGPZ",
    "lat": 38.925499,
    "lon": 20.765301,
    "type": "medium",
    "scheduled": true
  },
  {
    "name": "Patras Araxos Agamemnon Airport",
    "city": "Patras",
    "country": "GR",
    "iata": "GPA",
    "icao": "LGRX",
    "lat": 38.1511,
    "lon": 21.4256,
    "type": "medium",
    "scheduled": true
  },
  {
    "name": "Skiathos Island National Airport",
    "city": "Skiathos",
    "country": "GR",
    "iata": "JSI",
    "icao": "LGSK",
    "lat": 39.177101,
    "lon": 23.5037,
    "type": "medium",
    "scheduled": true
  },
  {
    "name": "Samos Airport",
    "city": "Samos Island",
    "country": "GR",
    "iata": "SMI",
    "icao": "LGSM",
    "lat": 37.689999,
    "lon": 26.911699,
    "type": "medium",
    "scheduled": true
  },
  {
    "name": "Santorini Airport",
    "city": "Santorini Island",
    "country": "GR",
    "iata": "JTR",
    "icao": "LGSR",
    "lat": 36.399200439453125,
    "lon": 25.479299545288086,
    "type": "medium",
    "scheduled": true
  },
  {
    "name": "Sitia Airport",
    "city": "Crete Island",
    "country": "GR",
    "iata": "JSH",
    "icao": "LGST",
    "lat": 35.21609878540039,
    "lon": 26.101299285888672,
    "type": "medium",
    "scheduled": true
  },
  {
    "name": "Thessaloniki Macedonia International Airport",
    "city": "Thessaloniki",
    "country": "GR",
    "iata": "SKG",
    "icao": "LGTS",
    "lat": 40.51928,
    "lon": 22.970009,
    "type": "large",
    "scheduled": true
  },
  {
    "name": "Zakynthos International Airport Dionysios Solomos",
    "city": "Zakynthos",
    "country": "GR",
    "iata": "ZTH",
    "icao": "LGZA",
    "lat": 37.7509,
    "lon": 20.8843,
    "type": "medium",
    "scheduled": true
  },
  {
    "name": "Budapest Liszt Ferenc International Airport",
    "city": "Budapest",
    "country": "HU",
    "iata": "BUD",
    "icao": "LHBP",
    "lat": 47.43018,
    "lon": 19.262393,
    "type": "large",
    "scheduled": true
  },
  {
    "name": "Debrecen International Airport",
    "city": "Debrecen",
    "country": "HU",
    "iata": "DEB",
    "icao": "LHDC",
    "lat": 47.488899,
    "lon": 21.615299,
    "type": "medium",
    "scheduled": true
  },
  {
    "name": "Pécs-Pogány Airport",
    "city": "Pécs",
    "country": "HU",
    "iata": "PEV",
    "icao": "LHPP",
    "lat": 45.988891,
    "lon": 18.242044,
    "type": "medium",
    "scheduled": true
  },
  {
    "name": "Győr-Pér International Airport",
    "city": "Pér",
    "country": "HU",
    "iata": "",
    "icao": "LHPR",
    "lat": 47.628436,
    "lon": 17.804718,
    "type": "medium",
    "scheduled": true
  },
  {
    "name": "Hévíz–Balaton Airport",
    "city": "Sármellék",
    "country": "HU",
    "iata": "SOB",
    "icao": "LHSM",
    "lat": 46.686391,
    "lon": 17.159084,
    "type": "medium",
    "scheduled": true
  },
  {
    "name": "Crotone Sant'Anna Pythagoras Airport",
    "city": "Isola di Capo Rizzuto (KR)",
    "country": "IT",
    "iata": "CRV",
    "icao": "LIBC",
    "lat": 38.9972,
    "lon": 17.0802,
    "type": "medium",
    "scheduled": true
  },
  {
    "name": "Bari Karol Wojtyła International Airport",
    "city": "Bari",
    "country": "IT",
    "iata": "BRI",
    "icao": "LIBD",
    "lat": 41.138901,
    "lon": 16.760599,
    "type": "large",
    "scheduled": true
  },
  {
    "name": "Foggia Gino Lisa Airport",
    "city": "Foggia (FG)",
    "country": "IT",
    "iata": "FOG",
    "icao": "LIBF",
    "lat": 41.433596,
    "lon": 15.534566,
    "type": "medium",
    "scheduled": true
  },
  {
    "name": "Abruzzo Airport",
    "city": "Pescara",
    "country": "IT",
    "iata": "PSR",
    "icao": "LIBP",
    "lat": 42.431079,
    "lon": 14.182981,
    "type": "large",
    "scheduled": true
  },
  {
    "name": "Brindisi Airport",
    "city": "Brindisi",
    "country": "IT",
    "iata": "BDS",
    "icao": "LIBR",
    "lat": 40.6576,
    "lon": 17.947001,
    "type": "large",
    "scheduled": true
  },
  {
    "name": "Lamezia Terme Sant'Eufemia International Airport",
    "city": "Lamezia Terme (CZ)",
    "country": "IT",
    "iata": "SUF",
    "icao": "LICA",
    "lat": 38.906214,
    "lon": 16.246007,
    "type": "large",
    "scheduled": true
  },
  {
    "name": "Comiso Airport",
    "city": "Comiso",
    "country": "IT",
    "iata": "CIY",
    "icao": "LICB",
    "lat": 36.99583,
    "lon": 14.60889,
    "type": "medium",
    "scheduled": true
  },
  {
    "name": "Catania-Fontanarossa Airport",
    "city": "Catania",
    "country": "IT",
    "iata": "CTA",
    "icao": "LICC",
    "lat": 37.466801,
    "lon": 15.0664,
    "type": "large",
    "scheduled": true
  },
  {
    "name": "Lampedusa Airport",
    "city": "Lampedusa",
    "country": "IT",
    "iata": "LMP",
    "icao": "LICD",
    "lat": 35.497898,
    "lon": 12.6181,
    "type": "medium",
    "scheduled": true
  },
  {
    "name": "Pantelleria Airport",
    "city": "Pantelleria (TP)",
    "country": "IT",
    "iata": "PNL",
    "icao": "LICG",
    "lat": 36.816502,
    "lon": 11.9689,
    "type": "medium",
    "scheduled": true
  },
  {
    "name": "Falcone–Borsellino Airport",
    "city": "Palermo",
    "country": "IT",
    "iata": "PMO",
    "icao": "LICJ",
    "lat": 38.175999,
    "lon": 13.091,
    "type": "large",
    "scheduled": true
  },
  {
    "name": "Reggio Calabria Airport",
    "city": "Reggio Calabria",
    "country": "IT",
    "iata": "REG",
    "icao": "LICR",
    "lat": 38.071201,
    "lon": 15.6516,
    "type": "medium",
    "scheduled": true
  },
  {
    "name": "Vincenzo Florio Airport Trapani-Birgi",
    "city": "Trapani (TP)",
    "country": "IT",
    "iata": "TPS",
    "icao": "LICT",
    "lat": 37.9114,
    "lon": 12.488,
    "type": "medium",
    "scheduled": true
  },
  {
    "name": "Trento-Mattarello Airport",
    "city": "Trento (TN)",
    "country": "IT",
    "iata": "",
    "icao": "LIDT",
    "lat": 46.023333,
    "lon": 11.125,
    "type": "medium",
    "scheduled": true
  },
  {
    "name": "Alghero-Fertilia Airport",
    "city": "Alghero",
    "country": "IT",
    "iata": "AHO",
    "icao": "LIEA",
    "lat": 40.632099,
    "lon": 8.29077,
    "type": "medium",
    "scheduled": true
  },
  {
    "name": "Cagliari Elmas Airport",
    "city": "Cagliari",
    "country": "IT",
    "iata": "CAG",
    "icao": "LIEE",
    "lat": 39.251499,
    "lon": 9.05428,
    "type": "large",
    "scheduled": true
  },
  {
    "name": "Olbia Costa Smeralda Airport",
    "city": "Olbia (SS)",
    "country": "IT",
    "iata": "OLB",
    "icao": "LIEO",
    "lat": 40.898953,
    "lon": 9.518457,
    "type": "large",
    "scheduled": true
  },
  {
    "name": "Milan Malpensa International Airport",
    "city": "Ferno (VA)",
    "country": "IT",
    "iata": "MXP",
    "icao": "LIMC",
    "lat": 45.6306,
    "lon": 8.72811,
    "type": "large",
    "scheduled": true
  },
  {
    "name": "Il Caravaggio International Airport",
    "city": "Orio al Serio (BG)",
    "country": "IT",
    "iata": "BGY",
    "icao": "LIME",
    "lat": 45.669362,
    "lon": 9.708851,
    "type": "large",
    "scheduled": true
  },
  {
    "name": "Turin Airport",
    "city": "Caselle Torinese (TO)",
    "country": "IT",
    "iata": "TRN",
    "icao": "LIMF",
    "lat": 45.200802,
    "lon": 7.64963,
    "type": "large",
    "scheduled": true
  },
  {
    "name": "Genoa Cristoforo Colombo Airport",
    "city": "Genova (GE)",
    "country": "IT",
    "iata": "GOA",
    "icao": "LIMJ",
    "lat": 44.412039,
    "lon": 8.840732,
    "type": "large",
    "scheduled": true
  },
  {
    "name": "Milano Linate Airport",
    "city": "Segrate (MI)",
    "country": "IT",
    "iata": "LIN",
    "icao": "LIML",
    "lat": 45.445099,
    "lon": 9.27674,
    "type": "large",
    "scheduled": true
  },
  {
    "name": "Parma Airport",
    "city": "Parma (PR)",
    "country": "IT",
    "iata": "PMF",
    "icao": "LIMP",
    "lat": 44.826351,
    "lon": 10.29705,
    "type": "medium",
    "scheduled": true
  },
  {
    "name": "Cuneo International Airport",
    "city": "Levaldigi (CN)",
    "country": "IT",
    "iata": "CUF",
    "icao": "LIMZ",
    "lat": 44.547458,
    "lon": 7.623045,
    "type": "medium",
    "scheduled": true
  },
  {
    "name": "Bolzano Airport",
    "city": "Bolzano (BZ)",
    "country": "IT",
    "iata": "BZO",
    "icao": "LIPB",
    "lat": 46.459245,
    "lon": 11.326125,
    "type": "medium",
    "scheduled": true
  },
  {
    "name": "Bologna Guglielmo Marconi Airport",
    "city": "Bologna",
    "country": "IT",
    "iata": "BLQ",
    "icao": "LIPE",
    "lat": 44.5354,
    "lon": 11.2887,
    "type": "large",
    "scheduled": true
  },
  {
    "name": "Treviso Airport",
    "city": "Treviso (TV)",
    "country": "IT",
    "iata": "TSF",
    "icao": "LIPH",
    "lat": 45.648399,
    "lon": 12.1944,
    "type": "large",
    "scheduled": true
  },
  {
    "name": "Forlì-Luigi Ridolfi International Airport",
    "city": "Forlì (FC)",
    "country": "IT",
    "iata": "FRL",
    "icao": "LIPK",
    "lat": 44.194801,
    "lon": 12.0701,
    "type": "medium",
    "scheduled": true
  },
  {
    "name": "Brescia Gabriele d'Annunzio Airport",
    "city": "Montichiari (BS)",
    "country": "IT",
    "iata": "VBS",
    "icao": "LIPO",
    "lat": 45.428902,
    "lon": 10.3306,
    "type": "medium",
    "scheduled": true
  },
  {
    "name": "Trieste–Friuli Venezia Giulia Airport",
    "city": "Ronchi dei Legionari (GO)",
    "country": "IT",
    "iata": "TRS",
    "icao": "LIPQ",
    "lat": 45.827499,
    "lon": 13.4722,
    "type": "medium",
    "scheduled": true
  },
  {
    "name": "Federico Fellini International Airport",
    "city": "Rimini (RN)",
    "country": "IT",
    "iata": "RMI",
    "icao": "LIPR",
    "lat": 44.020024,
    "lon": 12.612198,
    "type": "large",
    "scheduled": true
  },
  {
    "name": "Verona Villafranca Valerio Catullo Airport",
    "city": "Caselle (VR)",
    "country": "IT",
    "iata": "VRN",
    "icao": "LIPX",
    "lat": 45.394955,
    "lon": 10.887303,
    "type": "large",
    "scheduled": true
  },
  {
    "name": "Marche Airport",
    "city": "Falconara Marittima (AN)",
    "country": "IT",
    "iata": "AOI",
    "icao": "LIPY",
    "lat": 43.616299,
    "lon": 13.3623,
    "type": "medium",
    "scheduled": true
  },
  {
    "name": "Venice Marco Polo Airport",
    "city": "Venezia (VE)",
    "country": "IT",
    "iata": "VCE",
    "icao": "LIPZ",
    "lat": 45.505299,
    "lon": 12.3519,
    "type": "large",
    "scheduled": true
  },
  {
    "name": "Ciampino–G. B. Pastine International Airport",
    "city": "Rome",
    "country": "IT",
    "iata": "CIA",
    "icao": "LIRA",
    "lat": 41.798769,
    "lon": 12.595331,
    "type": "large",
    "scheduled": true
  },
  {
    "name": "Rome–Fiumicino Leonardo da Vinci International Airport",
    "city": "Rome",
    "country": "IT",
    "iata": "FCO",
    "icao": "LIRF",
    "lat": 41.804532,
    "lon": 12.251998,
    "type": "large",
    "scheduled": true
  },
  {
    "name": "Salerno Costa d'Amalfi Airport",
    "city": "Salerno",
    "country": "IT",
    "iata": "QSR",
    "icao": "LIRI",
    "lat": 40.620399,
    "lon": 14.9113,
    "type": "medium",
    "scheduled": true
  },
  {
    "name": "Marina di Campo Airport",
    "city": "Campo nell'Elba (LI)",
    "country": "IT",
    "iata": "EBA",
    "icao": "LIRJ",
    "lat": 42.760871,
    "lon": 10.239811,
    "type": "medium",
    "scheduled": true
  },
  {
    "name": "Naples International Airport",
    "city": "Napoli",
    "country": "IT",
    "iata": "NAP",
    "icao": "LIRN",
    "lat": 40.886002,
    "lon": 14.2908,
    "type": "large",
    "scheduled": true
  },
  {
    "name": "Pisa International Airport",
    "city": "Pisa (PI)",
    "country": "IT",
    "iata": "PSA",
    "icao": "LIRP",
    "lat": 43.683899,
    "lon": 10.3927,
    "type": "large",
    "scheduled": true
  },
  {
    "name": "Florence Airport, Peretola",
    "city": "Firenze (FI)",
    "country": "IT",
    "iata": "FLR",
    "icao": "LIRQ",
    "lat": 43.808558,
    "lon": 11.202822,
    "type": "large",
    "scheduled": true
  },
  {
    "name": "Perugia San Francesco d'Assisi – Umbria International Airport",
    "city": "Perugia (PG)",
    "country": "IT",
    "iata": "PEG",
    "icao": "LIRZ",
    "lat": 43.095901,
    "lon": 12.5132,
    "type": "large",
    "scheduled": true
  },
  {
    "name": "Ljubljana Jože Pučnik Airport",
    "city": "Zgornji Brnik",
    "country": "SI",
    "iata": "LJU",
    "icao": "LJLJ",
    "lat": 46.223701,
    "lon": 14.4576,
    "type": "large",
    "scheduled": true
  },
  {
    "name": "České Budějovice South Bohemian Airport",
    "city": "České Budějovice",
    "country": "CZ",
    "iata": "JCL",
    "icao": "LKCS",
    "lat": 48.948171,
    "lon": 14.42832,
    "type": "large",
    "scheduled": true
  },
  {
    "name": "Karlovy Vary Airport",
    "city": "Karlovy Vary",
    "country": "CZ",
    "iata": "KLV",
    "icao": "LKKV",
    "lat": 50.202999,
    "lon": 12.915,
    "type": "large",
    "scheduled": true
  },
  {
    "name": "Leoš Janáček Airport Ostrava",
    "city": "Mošnov",
    "country": "CZ",
    "iata": "OSR",
    "icao": "LKMT",
    "lat": 49.696301,
    "lon": 18.111099,
    "type": "large",
    "scheduled": true
  },
  {
    "name": "Pardubice Airport",
    "city": "Pardubice",
    "country": "CZ",
    "iata": "PED",
    "icao": "LKPD",
    "lat": 50.015049,
    "lon": 15.73981,
    "type": "large",
    "scheduled": true
  },
  {
    "name": "Václav Havel Airport Prague",
    "city": "Prague",
    "country": "CZ",
    "iata": "PRG",
    "icao": "LKPR",
    "lat": 50.100874,
    "lon": 14.259911,
    "type": "large",
    "scheduled": true
  },
  {
    "name": "Brno-Tuřany Airport",
    "city": "Brno",
    "country": "CZ",
    "iata": "BRQ",
    "icao": "LKTB",
    "lat": 49.151276,
    "lon": 16.693972,
    "type": "medium",
    "scheduled": true
  },
  {
    "name": "Malta International Airport",
    "city": "Valletta",
    "country": "MT",
    "iata": "MLA",
    "icao": "LMML",
    "lat": 35.857498,
    "lon": 14.4775,
    "type": "large",
    "scheduled": true
  },
  {
    "name": "Graz Airport",
    "city": "Feldkirchen bei Graz",
    "country": "AT",
    "iata": "GRZ",
    "icao": "LOWG",
    "lat": 46.9911,
    "lon": 15.4396,
    "type": "large",
    "scheduled": true
  },
  {
    "name": "Innsbruck Airport",
    "city": "Innsbruck",
    "country": "AT",
    "iata": "INN",
    "icao": "LOWI",
    "lat": 47.260201,
    "lon": 11.344,
    "type": "large",
    "scheduled": true
  },
  {
    "name": "Klagenfurt Airport",
    "city": "Klagenfurt am Wörthersee",
    "country": "AT",
    "iata": "KLU",
    "icao": "LOWK",
    "lat": 46.642502,
    "lon": 14.3377,
    "type": "large",
    "scheduled": true
  },
  {
    "name": "Linz-Hörsching Airport",
    "city": "Linz",
    "country": "AT",
    "iata": "LNZ",
    "icao": "LOWL",
    "lat": 48.235362,
    "lon": 14.188128,
    "type": "large",
    "scheduled": true
  },
  {
    "name": "Salzburg Airport",
    "city": "Salzburg",
    "country": "AT",
    "iata": "SZG",
    "icao": "LOWS",
    "lat": 47.793301,
    "lon": 13.0043,
    "type": "large",
    "scheduled": true
  },
  {
    "name": "Vienna International Airport",
    "city": "Vienna",
    "country": "AT",
    "iata": "VIE",
    "icao": "LOWW",
    "lat": 48.110298,
    "lon": 16.5697,
    "type": "large",
    "scheduled": true
  },
  {
    "name": "Santa Maria Airport",
    "city": "Vila do Porto",
    "country": "PT",
    "iata": "SMA",
    "icao": "LPAZ",
    "lat": 36.97140121459961,
    "lon": -25.17060089111328,
    "type": "medium",
    "scheduled": true
  },
  {
    "name": "Bragança Airport",
    "city": "Bragança",
    "country": "PT",
    "iata": "BGC",
    "icao": "LPBG",
    "lat": 41.8578,
    "lon": -6.70713,
    "type": "medium",
    "scheduled": true
  },
  {
    "name": "Cascais Airport",
    "city": "Cascais",
    "country": "PT",
    "iata": "CAT",
    "icao": "LPCS",
    "lat": 38.724998,
    "lon": -9.35523,
    "type": "medium",
    "scheduled": true
  },
  {
    "name": "Flores Airport",
    "city": "Santa Cruz das Flores",
    "country": "PT",
    "iata": "FLW",
    "icao": "LPFL",
    "lat": 39.455299377441406,
    "lon": -31.131399154663086,
    "type": "medium",
    "scheduled": true
  },
  {
    "name": "Faro - Gago Coutinho International Airport",
    "city": "Faro",
    "country": "PT",
    "iata": "FAO",
    "icao": "LPFR",
    "lat": 37.015909,
    "lon": -7.970939,
    "type": "large",
    "scheduled": true
  },
  {
    "name": "Graciosa Airport",
    "city": "Santa Cruz da Graciosa",
    "country": "PT",
    "iata": "GRW",
    "icao": "LPGR",
    "lat": 39.092201232910156,
    "lon": -28.029800415039062,
    "type": "medium",
    "scheduled": true
  },
  {
    "name": "Horta Airport",
    "city": "Horta",
    "country": "PT",
    "iata": "HOR",
    "icao": "LPHR",
    "lat": 38.519901275634766,
    "lon": -28.715900421142578,
    "type": "medium",
    "scheduled": true
  },
  {
    "name": "Lajes Airport",
    "city": "Praia da Vitória",
    "country": "PT",
    "iata": "TER",
    "icao": "LPLA",
    "lat": 38.761799,
    "lon": -27.090799,
    "type": "medium",
    "scheduled": true
  },
  {
    "name": "Cristiano Ronaldo International Airport",
    "city": "Funchal",
    "country": "PT",
    "iata": "FNC",
    "icao": "LPMA",
    "lat": 32.697812,
    "lon": -16.774613,
    "type": "large",
    "scheduled": true
  },
  {
    "name": "João Paulo II Airport",
    "city": "Ponta Delgada",
    "country": "PT",
    "iata": "PDL",
    "icao": "LPPD",
    "lat": 37.7411994934,
    "lon": -25.6979007721,
    "type": "large",
    "scheduled": true
  },
  {
    "name": "Pico Airport",
    "city": "Pico Island",
    "country": "PT",
    "iata": "PIX",
    "icao": "LPPI",
    "lat": 38.554298,
    "lon": -28.441299,
    "type": "medium",
    "scheduled": true
  },
  {
    "name": "Portimão Airport",
    "city": "Portimão",
    "country": "PT",
    "iata": "PRM",
    "icao": "LPPM",
    "lat": 37.1493,
    "lon": -8.58396,
    "type": "medium",
    "scheduled": true
  },
  {
    "name": "Francisco de Sá Carneiro Airport",
    "city": "Porto",
    "country": "PT",
    "iata": "OPO",
    "icao": "LPPR",
    "lat": 41.2481002808,
    "lon": -8.68138980865,
    "type": "large",
    "scheduled": true
  },
  {
    "name": "Porto Santo Airport",
    "city": "Vila Baleira",
    "country": "PT",
    "iata": "PXO",
    "icao": "LPPS",
    "lat": 33.0733985901,
    "lon": -16.3500003815,
    "type": "medium",
    "scheduled": true
  },
  {
    "name": "Lisbon Humberto Delgado Airport",
    "city": "Lisbon",
    "country": "PT",
    "iata": "LIS",
    "icao": "LPPT",
    "lat": 38.7813,
    "lon": -9.13592,
    "type": "large",
    "scheduled": true
  },
  {
    "name": "São Jorge Airport",
    "city": "Velas",
    "country": "PT",
    "iata": "SJZ",
    "icao": "LPSJ",
    "lat": 38.665501,
    "lon": -28.1758,
    "type": "medium",
    "scheduled": true
  },
  {
    "name": "Vila Real Airport",
    "city": "Vila Real",
    "country": "PT",
    "iata": "VRL",
    "icao": "LPVR",
    "lat": 41.2743,
    "lon": -7.72047,
    "type": "medium",
    "scheduled": true
  },
  {
    "name": "Aerodromo Goncalves Lobato (Viseu Airport)",
    "city": "Viseu",
    "country": "PT",
    "iata": "VSE",
    "icao": "LPVZ",
    "lat": 40.725498,
    "lon": -7.88899,
    "type": "medium",
    "scheduled": true
  },
  {
    "name": "Banja Luka International Airport",
    "city": "Mahovljani",
    "country": "BA",
    "iata": "BNX",
    "icao": "LQBK",
    "lat": 44.941399,
    "lon": 17.297501,
    "type": "large",
    "scheduled": true
  },
  {
    "name": "Mostar International Airport",
    "city": "Mostar",
    "country": "BA",
    "iata": "OMO",
    "icao": "LQMO",
    "lat": 43.282489,
    "lon": 17.846101,
    "type": "large",
    "scheduled": true
  },
  {
    "name": "Sarajevo International Airport",
    "city": "Sarajevo",
    "country": "BA",
    "iata": "SJJ",
    "icao": "LQSA",
    "lat": 43.8246,
    "lon": 18.331499,
    "type": "large",
    "scheduled": true
  },
  {
    "name": "Tuzla International Airport",
    "city": "Dubrave Gornje",
    "country": "BA",
    "iata": "TZL",
    "icao": "LQTZ",
    "lat": 44.459858,
    "lon": 18.723627,
    "type": "large",
    "scheduled": true
  },
  {
    "name": "Arad International Airport",
    "city": "Arad",
    "country": "RO",
    "iata": "ARW",
    "icao": "LRAR",
    "lat": 46.176136,
    "lon": 21.264322,
    "type": "medium",
    "scheduled": true
  },
  {
    "name": "Bacău George Enescu International  Airport",
    "city": "Bacău",
    "country": "RO",
    "iata": "BCM",
    "icao": "LRBC",
    "lat": 46.5219,
    "lon": 26.910299,
    "type": "large",
    "scheduled": true
  },
  {
    "name": "Maramureș International Airport",
    "city": "Tăuții-Măgherăuș",
    "country": "RO",
    "iata": "BAY",
    "icao": "LRBM",
    "lat": 47.658444,
    "lon": 23.464445,
    "type": "medium",
    "scheduled": true
  },
  {
    "name": "Bucharest Băneasa Aurel Vlaicu International Airport",
    "city": "Bucharest",
    "country": "RO",
    "iata": "BBU",
    "icao": "LRBS",
    "lat": 44.503133,
    "lon": 26.102944,
    "type": "large",
    "scheduled": true
  },
  {
    "name": "Brașov-Ghimbav International Airport",
    "city": "Brașov (Ghimbav)",
    "country": "RO",
    "iata": "GHV",
    "icao": "LRBV",
    "lat": 45.70558,
    "lon": 25.522871,
    "type": "large",
    "scheduled": true
  },
  {
    "name": "Mihail Kogălniceanu International Airport",
    "city": "Mihail Kogălniceanu",
    "country": "RO",
    "iata": "CND",
    "icao": "LRCK",
    "lat": 44.362202,
    "lon": 28.4883,
    "type": "medium",
    "scheduled": true
  },
  {
    "name": "Avram Iancu Cluj International Airport",
    "city": "Cluj-Napoca",
    "country": "RO",
    "iata": "CLJ",
    "icao": "LRCL",
    "lat": 46.786042,
    "lon": 23.685733,
    "type": "large",
    "scheduled": true
  },
  {
    "name": "Craiova International Airport",
    "city": "Craiova",
    "country": "RO",
    "iata": "CRA",
    "icao": "LRCV",
    "lat": 44.3181,
    "lon": 23.888599,
    "type": "medium",
    "scheduled": true
  },
  {
    "name": "Iaşi International Airport",
    "city": "Iaşi",
    "country": "RO",
    "iata": "IAS",
    "icao": "LRIA",
    "lat": 47.179633,
    "lon": 27.621431,
    "type": "large",
    "scheduled": true
  },
  {
    "name": "Oradea International Airport",
    "city": "Oradea",
    "country": "RO",
    "iata": "OMR",
    "icao": "LROD",
    "lat": 47.025299,
    "lon": 21.9025,
    "type": "large",
    "scheduled": true
  },
  {
    "name": "Bucharest Henri Coandă International Airport",
    "city": "Otopeni",
    "country": "RO",
    "iata": "OTP",
    "icao": "LROP",
    "lat": 44.571792,
    "lon": 26.103285,
    "type": "large",
    "scheduled": true
  },
  {
    "name": "Sibiu International Airport",
    "city": "Sibiu",
    "country": "RO",
    "iata": "SBZ",
    "icao": "LRSB",
    "lat": 45.785841,
    "lon": 24.086666,
    "type": "large",
    "scheduled": true
  },
  {
    "name": "Satu Mare International Airport",
    "city": "Satu Mare",
    "country": "RO",
    "iata": "SUJ",
    "icao": "LRSM",
    "lat": 47.7033,
    "lon": 22.8857,
    "type": "medium",
    "scheduled": true
  },
  {
    "name": "Suceava Ștefan cel Mare International Airport",
    "city": "Suceava",
    "country": "RO",
    "iata": "SCV",
    "icao": "LRSV",
    "lat": 47.6875,
    "lon": 26.354099,
    "type": "large",
    "scheduled": true
  },
  {
    "name": "Târgu Mureş Transilvania International Airport",
    "city": "Recea",
    "country": "RO",
    "iata": "TGM",
    "icao": "LRTM",
    "lat": 46.467701,
    "lon": 24.4125,
    "type": "medium",
    "scheduled": true
  },
  {
    "name": "Timișoara Traian Vuia International Airport",
    "city": "Timişoara",
    "country": "RO",
    "iata": "TSR",
    "icao": "LRTR",
    "lat": 45.809898,
    "lon": 21.3379,
    "type": "large",
    "scheduled": true
  },
  {
    "name": "Geneva Cointrin International Airport",
    "city": "Geneva",
    "country": "CH",
    "iata": "GVA",
    "icao": "LSGG",
    "lat": 46.238098,
    "lon": 6.10895,
    "type": "large",
    "scheduled": true
  },
  {
    "name": "Lugano Airport",
    "city": "Agno",
    "country": "CH",
    "iata": "LUG",
    "icao": "LSZA",
    "lat": 46.004299,
    "lon": 8.91058,
    "type": "medium",
    "scheduled": true
  },
  {
    "name": "Bern Airport",
    "city": "Bern",
    "country": "CH",
    "iata": "BRN",
    "icao": "LSZB",
    "lat": 46.912736,
    "lon": 7.498819,
    "type": "medium",
    "scheduled": true
  },
  {
    "name": "Zürich Airport",
    "city": "Zurich",
    "country": "CH",
    "iata": "ZRH",
    "icao": "LSZH",
    "lat": 47.458056,
    "lon": 8.548056,
    "type": "large",
    "scheduled": true
  },
  {
    "name": "Sankt Gallen Altenrhein Airport",
    "city": "St. Gallen",
    "country": "CH",
    "iata": "ACH",
    "icao": "LSZR",
    "lat": 47.485001,
    "lon": 9.56077,
    "type": "medium",
    "scheduled": true
  },
  {
    "name": "Tekirdağ Çorlu Airport",
    "city": "Çorlu",
    "country": "TR",
    "iata": "TEQ",
    "icao": "LTBU",
    "lat": 41.13819885253906,
    "lon": 27.919099807739258,
    "type": "medium",
    "scheduled": true
  },
  {
    "name": "İstanbul Airport",
    "city": "Arnavutköy, Istanbul",
    "country": "TR",
    "iata": "IST",
    "icao": "LTFM",
    "lat": 41.261297,
    "lon": 28.741951,
    "type": "large",
    "scheduled": true
  },
  {
    "name": "Chişinău International Airport",
    "city": "Chişinău",
    "country": "MD",
    "iata": "RMO",
    "icao": "LUKK",
    "lat": 46.92774,
    "lon": 28.931704,
    "type": "large",
    "scheduled": true
  },
  {
    "name": "Ohrid St. Paul the Apostle Airport",
    "city": "Ohrid",
    "country": "MK",
    "iata": "OHD",
    "icao": "LWOH",
    "lat": 41.18,
    "lon": 20.7423,
    "type": "medium",
    "scheduled": true
  },
  {
    "name": "Skopje International Airport",
    "city": "Ilinden",
    "country": "MK",
    "iata": "SKP",
    "icao": "LWSK",
    "lat": 41.958087,
    "lon": 21.622581,
    "type": "large",
    "scheduled": true
  },
  {
    "name": "Gibraltar Airport",
    "city": "Gibraltar",
    "country": "GI",
    "iata": "GIB",
    "icao": "LXGB",
    "lat": 36.151679,
    "lon": -5.34978,
    "type": "large",
    "scheduled": true
  },
  {
    "name": "Belgrade Nikola Tesla Airport",
    "city": "Belgrade",
    "country": "RS",
    "iata": "BEG",
    "icao": "LYBE",
    "lat": 44.818401,
    "lon": 20.309099,
    "type": "large",
    "scheduled": true
  },
  {
    "name": "Morava Airport",
    "city": "Kraljevo",
    "country": "RS",
    "iata": "KVO",
    "icao": "LYKV",
    "lat": 43.817519,
    "lon": 20.586662,
    "type": "medium",
    "scheduled": true
  },
  {
    "name": "Niš Constantine the Great Airport",
    "city": "Niš",
    "country": "RS",
    "iata": "INI",
    "icao": "LYNI",
    "lat": 43.336538,
    "lon": 21.856242,
    "type": "large",
    "scheduled": true
  },
  {
    "name": "Podgorica Airport / Podgorica Golubovci Airbase",
    "city": "Podgorica",
    "country": "ME",
    "iata": "TGD",
    "icao": "LYPG",
    "lat": 42.359402,
    "lon": 19.2519,
    "type": "large",
    "scheduled": true
  },
  {
    "name": "Tivat Airport",
    "city": "Tivat",
    "country": "ME",
    "iata": "TIV",
    "icao": "LYTV",
    "lat": 42.404701232910156,
    "lon": 18.72330093383789,
    "type": "medium",
    "scheduled": true
  },
  {
    "name": "M. R. Štefánik Airport",
    "city": "Bratislava",
    "country": "SK",
    "iata": "BTS",
    "icao": "LZIB",
    "lat": 48.1702,
    "lon": 17.2127,
    "type": "large",
    "scheduled": true
  },
  {
    "name": "Košice International Airport",
    "city": "Košice",
    "country": "SK",
    "iata": "KSC",
    "icao": "LZKZ",
    "lat": 48.663101,
    "lon": 21.2411,
    "type": "medium",
    "scheduled": true
  },
  {
    "name": "Sliač Airport",
    "city": "Sliač",
    "country": "SK",
    "iata": "SLD",
    "icao": "LZSL",
    "lat": 48.63779830932617,
    "lon": 19.13409996032715,
    "type": "medium",
    "scheduled": true
  },
  {
    "name": "Poprad-Tatry Airport",
    "city": "Poprad",
    "country": "SK",
    "iata": "TAT",
    "icao": "LZTT",
    "lat": 49.073601,
    "lon": 20.2411,
    "type": "medium",
    "scheduled": true
  },
  {
    "name": "Yeysk Airport",
    "city": "Yeysk",
    "country": "RU",
    "iata": "EIK",
    "icao": "RU-10077",
    "lat": 46.68,
    "lon": 38.21,
    "type": "medium",
    "scheduled": true
  },
  {
    "name": "Saskylakh Airport",
    "city": "Saskylakh",
    "country": "RU",
    "iata": "SYS",
    "icao": "UERS",
    "lat": 71.927902,
    "lon": 114.080002,
    "type": "medium",
    "scheduled": true
  },
  {
    "name": "Boryspil International Airport",
    "city": "Boryspil",
    "country": "UA",
    "iata": "KBP",
    "icao": "UKBB",
    "lat": 50.345001,
    "lon": 30.894699,
    "type": "large",
    "scheduled": true
  },
  {
    "name": "Mariupol International Airport",
    "city": "Mariupol",
    "country": "UA",
    "iata": "MPW",
    "icao": "UKCM",
    "lat": 47.07609939575195,
    "lon": 37.44960021972656,
    "type": "medium",
    "scheduled": true
  },
  {
    "name": "Dnipro International Airport",
    "city": "Dnipro",
    "country": "UA",
    "iata": "DNK",
    "icao": "UKDD",
    "lat": 48.357201,
    "lon": 35.100601,
    "type": "medium",
    "scheduled": true
  },
  {
    "name": "Zaporizhzhia International Airport",
    "city": "Zaporizhia",
    "country": "UA",
    "iata": "OZH",
    "icao": "UKDE",
    "lat": 47.867000579833984,
    "lon": 35.31570053100586,
    "type": "medium",
    "scheduled": true
  },
  {
    "name": "Kryvyi Rih International Airport",
    "city": "Kryvyi Rih",
    "country": "UA",
    "iata": "KWG",
    "icao": "UKDR",
    "lat": 48.04330062866211,
    "lon": 33.209999084472656,
    "type": "medium",
    "scheduled": true
  },
  {
    "name": "Simferopol International Airport",
    "city": "Simferopol",
    "country": "UA",
    "iata": "SIP",
    "icao": "UKFF",
    "lat": 45.0522,
    "lon": 33.975101,
    "type": "large",
    "scheduled": true
  },
  {
    "name": "Kharkiv International Airport",
    "city": "Kharkiv",
    "country": "UA",
    "iata": "HRK",
    "icao": "UKHH",
    "lat": 49.926943,
    "lon": 36.290814,
    "type": "medium",
    "scheduled": true
  },
  {
    "name": "Ihor Sikorsky Kyiv International Airport (Zhuliany)",
    "city": "Kyiv",
    "country": "UA",
    "iata": "IEV",
    "icao": "UKKK",
    "lat": 50.40194,
    "lon": 30.45194,
    "type": "medium",
    "scheduled": true
  },
  {
    "name": "Ivano-Frankivsk International Airport",
    "city": "Ivano-Frankivsk",
    "country": "UA",
    "iata": "IFO",
    "icao": "UKLI",
    "lat": 48.88420104980469,
    "lon": 24.686100006103516,
    "type": "medium",
    "scheduled": true
  },
  {
    "name": "Lviv International Airport",
    "city": "Lviv",
    "country": "UA",
    "iata": "LWO",
    "icao": "UKLL",
    "lat": 49.8125,
    "lon": 23.9561,
    "type": "large",
    "scheduled": true
  },
  {
    "name": "Chernivtsi International Airport",
    "city": "Chernivtsi",
    "country": "UA",
    "iata": "CWC",
    "icao": "UKLN",
    "lat": 48.259300231933594,
    "lon": 25.98080062866211,
    "type": "medium",
    "scheduled": true
  },
  {
    "name": "Rivne International Airport",
    "city": "Rivne",
    "country": "UA",
    "iata": "RWN",
    "icao": "UKLR",
    "lat": 50.60710144042969,
    "lon": 26.141599655151367,
    "type": "medium",
    "scheduled": true
  },
  {
    "name": "Uzhhorod International Airport",
    "city": "Uzhhorod",
    "country": "UA",
    "iata": "UDJ",
    "icao": "UKLU",
    "lat": 48.6343,
    "lon": 22.263399,
    "type": "large",
    "scheduled": true
  },
  {
    "name": "Kherson International Airport",
    "city": "Kherson",
    "country": "UA",
    "iata": "KHE",
    "icao": "UKOH",
    "lat": 46.6758,
    "lon": 32.506401,
    "type": "medium",
    "scheduled": true
  },
  {
    "name": "Mykolaiv International Airport",
    "city": "Nikolayev",
    "country": "UA",
    "iata": "NLV",
    "icao": "UKON",
    "lat": 47.057899,
    "lon": 31.9198,
    "type": "medium",
    "scheduled": true
  },
  {
    "name": "Odessa International Airport",
    "city": "Odessa",
    "country": "UA",
    "iata": "ODS",
    "icao": "UKOO",
    "lat": 46.4268,
    "lon": 30.6765,
    "type": "medium",
    "scheduled": true
  },
  {
    "name": "Talagi Airport",
    "city": "Archangelsk",
    "country": "RU",
    "iata": "ARH",
    "icao": "ULAA",
    "lat": 64.60030364990234,
    "lon": 40.71670150756836,
    "type": "medium",
    "scheduled": true
  },
  {
    "name": "Naryan Mar Airport",
    "city": "Naryan Mar",
    "country": "RU",
    "iata": "NNM",
    "icao": "ULAM",
    "lat": 67.639999,
    "lon": 53.121899,
    "type": "medium",
    "scheduled": true
  },
  {
    "name": "Kotlas Airport",
    "city": "Kotlas",
    "country": "RU",
    "iata": "KSZ",
    "icao": "ULKK",
    "lat": 61.235801696777344,
    "lon": 46.6974983215332,
    "type": "medium",
    "scheduled": true
  },
  {
    "name": "Pulkovo Airport",
    "city": "St. Petersburg",
    "country": "RU",
    "iata": "LED",
    "icao": "ULLI",
    "lat": 59.800301,
    "lon": 30.262501,
    "type": "large",
    "scheduled": true
  },
  {
    "name": "Cherepovets Airport",
    "city": "Cherepovets",
    "country": "RU",
    "iata": "CEE",
    "icao": "ULWC",
    "lat": 59.273601532,
    "lon": 38.015800476100004,
    "type": "medium",
    "scheduled": true
  },
  {
    "name": "Brest International Airport",
    "city": "Brest",
    "country": "BY",
    "iata": "BQT",
    "icao": "UMBB",
    "lat": 52.108138,
    "lon": 23.89676,
    "type": "large",
    "scheduled": true
  },
  {
    "name": "Gomel Airport",
    "city": "Gomel",
    "country": "BY",
    "iata": "GME",
    "icao": "UMGG",
    "lat": 52.527000427246094,
    "lon": 31.016700744628906,
    "type": "medium",
    "scheduled": true
  },
  {
    "name": "Minsk National Airport",
    "city": "Minsk",
    "country": "BY",
    "iata": "MSQ",
    "icao": "UMMS",
    "lat": 53.888071,
    "lon": 28.039964,
    "type": "large",
    "scheduled": true
  },
  {
    "name": "Mogilev Airport",
    "city": "Mogilev",
    "country": "BY",
    "iata": "MVQ",
    "icao": "UMOO",
    "lat": 53.954898834228516,
    "lon": 30.09510040283203,
    "type": "medium",
    "scheduled": true
  },
  {
    "name": "Novosibirsk Tolmachevo Airport",
    "city": "Novosibirsk",
    "country": "RU",
    "iata": "OVB",
    "icao": "UNNT",
    "lat": 55.019756,
    "lon": 82.618675,
    "type": "large",
    "scheduled": true
  },
  {
    "name": "Anapa Vityazevo Airport",
    "city": "Krasnyi Kurgan",
    "country": "RU",
    "iata": "AAQ",
    "icao": "URKA",
    "lat": 45.002102,
    "lon": 37.347301,
    "type": "medium",
    "scheduled": true
  },
  {
    "name": "Gelendzhik Airport",
    "city": "Gelendzhik",
    "country": "RU",
    "iata": "GDZ",
    "icao": "URKG",
    "lat": 44.5820926295,
    "lon": 38.0124807358,
    "type": "medium",
    "scheduled": true
  },
  {
    "name": "Grozny Airport",
    "city": "Grozny",
    "country": "RU",
    "iata": "GRV",
    "icao": "URMG",
    "lat": 43.388106,
    "lon": 45.699772,
    "type": "medium",
    "scheduled": true
  },
  {
    "name": "Nalchik Airport",
    "city": "Nalchik",
    "country": "RU",
    "iata": "NAL",
    "icao": "URMN",
    "lat": 43.512901,
    "lon": 43.6366,
    "type": "medium",
    "scheduled": true
  },
  {
    "name": "Vladikavkaz Beslan International Airport",
    "city": "Beslan",
    "country": "RU",
    "iata": "OGZ",
    "icao": "URMO",
    "lat": 43.205101,
    "lon": 44.606602,
    "type": "medium",
    "scheduled": true
  },
  {
    "name": "Stavropol Shpakovskoye Airport",
    "city": "Stavropol",
    "country": "RU",
    "iata": "STW",
    "icao": "URMT",
    "lat": 45.10919952392578,
    "lon": 42.11280059814453,
    "type": "medium",
    "scheduled": true
  },
  {
    "name": "Platov International Airport",
    "city": "Rostov-on-Don",
    "country": "RU",
    "iata": "ROV",
    "icao": "URRP",
    "lat": 47.493888,
    "lon": 39.924722,
    "type": "large",
    "scheduled": true
  },
  {
    "name": "Taganrog Yuzhny Airport",
    "city": "Taganrog",
    "country": "RU",
    "iata": "TGK",
    "icao": "URRT",
    "lat": 47.1983333,
    "lon": 38.8491667,
    "type": "medium",
    "scheduled": true
  },
  {
    "name": "Sochi International Airport",
    "city": "Sochi",
    "country": "RU",
    "iata": "AER",
    "icao": "URSS",
    "lat": 43.449902,
    "lon": 39.9566,
    "type": "large",
    "scheduled": true
  },
  {
    "name": "Elista Airport",
    "city": "Elista",
    "country": "RU",
    "iata": "ESL",
    "icao": "URWI",
    "lat": 46.3739013671875,
    "lon": 44.33089828491211,
    "type": "medium",
    "scheduled": true
  },
  {
    "name": "Nyagan Airport",
    "city": "Nyagan",
    "country": "RU",
    "iata": "NYA",
    "icao": "USHN",
    "lat": 62.110001,
    "lon": 65.614998,
    "type": "medium",
    "scheduled": true
  },
  {
    "name": "Beloyarskiy Airport",
    "city": "",
    "country": "RU",
    "iata": "EYK",
    "icao": "USHQ",
    "lat": 63.686901,
    "lon": 66.698601,
    "type": "medium",
    "scheduled": true
  },
  {
    "name": "Pobedilovo Airport",
    "city": "Kirov",
    "country": "RU",
    "iata": "KVX",
    "icao": "USKK",
    "lat": 58.503883,
    "lon": 49.347831,
    "type": "medium",
    "scheduled": true
  },
  {
    "name": "Kostroma Sokerkino Airport",
    "city": "Kostroma",
    "country": "RU",
    "iata": "KMW",
    "icao": "UUBA",
    "lat": 57.796902,
    "lon": 41.019402,
    "type": "medium",
    "scheduled": true
  },
  {
    "name": "Ivanovo South Airport",
    "city": "Ivanovo",
    "country": "RU",
    "iata": "IWA",
    "icao": "UUBI",
    "lat": 56.93939971923828,
    "lon": 40.940799713134766,
    "type": "medium",
    "scheduled": true
  },
  {
    "name": "Staroselye Airport",
    "city": "Rybinsk",
    "country": "RU",
    "iata": "RYB",
    "icao": "UUBK",
    "lat": 58.104198,
    "lon": 38.929401,
    "type": "medium",
    "scheduled": true
  },
  {
    "name": "Bryansk Airport",
    "city": "Bryansk",
    "country": "RU",
    "iata": "BZK",
    "icao": "UUBP",
    "lat": 53.214199,
    "lon": 34.176399,
    "type": "medium",
    "scheduled": true
  },
  {
    "name": "Zhukovsky International Airport",
    "city": "Moscow",
    "country": "RU",
    "iata": "ZIA",
    "icao": "UUBW",
    "lat": 55.553299,
    "lon": 38.150002,
    "type": "large",
    "scheduled": true
  },
  {
    "name": "Domodedovo International Airport",
    "city": "Moscow",
    "country": "RU",
    "iata": "DME",
    "icao": "UUDD",
    "lat": 55.408798,
    "lon": 37.9063,
    "type": "large",
    "scheduled": true
  },
  {
    "name": "Sheremetyevo International Airport",
    "city": "Moscow",
    "country": "RU",
    "iata": "SVO",
    "icao": "UUEE",
    "lat": 55.972599,
    "lon": 37.4146,
    "type": "large",
    "scheduled": true
  },
  {
    "name": "Belgorod International Airport",
    "city": "Belgorod",
    "country": "RU",
    "iata": "EGO",
    "icao": "UUOB",
    "lat": 50.643798828125,
    "lon": 36.5900993347168,
    "type": "medium",
    "scheduled": true
  },
  {
    "name": "Kursk East Airport",
    "city": "Kursk",
    "country": "RU",
    "iata": "URS",
    "icao": "UUOK",
    "lat": 51.7505989074707,
    "lon": 36.29560089111328,
    "type": "medium",
    "scheduled": true
  },
  {
    "name": "Lipetsk Airport",
    "city": "Lipetsk",
    "country": "RU",
    "iata": "LPK",
    "icao": "UUOL",
    "lat": 52.70280075073242,
    "lon": 39.53779983520508,
    "type": "medium",
    "scheduled": true
  },
  {
    "name": "Vnukovo International Airport",
    "city": "Moscow",
    "country": "RU",
    "iata": "VKO",
    "icao": "UUWW",
    "lat": 55.591499,
    "lon": 37.261501,
    "type": "large",
    "scheduled": true
  },
  {
    "name": "Pechora Airport",
    "city": "Pechora",
    "country": "RU",
    "iata": "PEX",
    "icao": "UUYP",
    "lat": 65.121101,
    "lon": 57.130798,
    "type": "medium",
    "scheduled": true
  },
  {
    "name": "Syktyvkar Airport",
    "city": "Syktyvkar",
    "country": "RU",
    "iata": "SCW",
    "icao": "UUYY",
    "lat": 61.64699935913086,
    "lon": 50.84510040283203,
    "type": "medium",
    "scheduled": true
  },
  {
    "name": "Penza Airport",
    "city": "Penza",
    "country": "RU",
    "iata": "PEZ",
    "icao": "UWPP",
    "lat": 53.110599517822266,
    "lon": 45.02109909057617,
    "type": "medium",
    "scheduled": true
  },
  {
    "name": "Saransk International Airport",
    "city": "Saransk",
    "country": "RU",
    "iata": "SKX",
    "icao": "UWPS",
    "lat": 54.12513,
    "lon": 45.212257,
    "type": "large",
    "scheduled": true
  },
  {
    "name": "Ufa International Airport",
    "city": "Ufa",
    "country": "RU",
    "iata": "UFA",
    "icao": "UWUU",
    "lat": 54.557498931885,
    "lon": 55.874401092529,
    "type": "large",
    "scheduled": true
  },
  {
    "name": "Kurumoch International Airport",
    "city": "Samara",
    "country": "RU",
    "iata": "KUF",
    "icao": "UWWW",
    "lat": 53.504902,
    "lon": 50.164299,
    "type": "large",
    "scheduled": true
  }
]